transforms:
- header:
    stamp:
      sec: 111
      nanosec: 284038895
    frame_id: left_hand_thumb_metacarpals_base2
  child_frame_id: left_hand_thumb_metacarpals
  transform:
    translation:
      x: 0.016130156815052032
      y: -0.0163051076233387
      z: 0.006860822439193726
    rotation:
      x: 0.3891479969024658
      y: -0.16242137551307678
      z: 0.8367823362350464
      w: 0.34925413131713867
---
transforms:
- header:
    stamp:
      sec: 111
      nanosec: 284038895
    frame_id: right_hand_thumb_metacarpals
  child_frame_id: right_hand_thumb_proximal
  transform:
    translation:
      x: 0.008164364844560623
      y: -0.001450104988180101
      z: 0.055633433163166046
    rotation:
      x: -3.8569726257264847e-07
      y: 0.029169408604502678
      z: -1.1367767838166287e-09
      w: 0.9995745420455933
---
transforms:
- header:
    stamp:
      sec: 111
      nanosec: 284038895
    frame_id: right_hand_thumb_proximal
  child_frame_id: right_hand_thumb_distal
  transform:
    translation:
      x: -0.0015479401918128133
      y: 0.0014998946571722627
      z: 0.034527987241744995
    rotation:
      x: 8.413895358216905e-08
      y: 0.000305465015117079
      z: 5.9823848097551036e-09
      w: 1.0
---
transforms:
- header:
    stamp:
      sec: 111
      nanosec: 284038895
    frame_id: left_link_6
  child_frame_id: left_link_7
  transform:
    translation:
      x: 2.2318387138398066e-08
      y: -0.0559997633099556
      z: 2.438977162455558e-07
    rotation:
      x: 0.00039459296385757625
      y: 0.7071079015731812
      z: 0.0003947027144022286
      w: 0.7071055173873901
---
transforms:
- header:
    stamp:
      sec: 111
      nanosec: 284038895
    frame_id: chest_link
  child_frame_id: right_link_1
  transform:
    translation:
      x: -0.10298768430948257
      y: -1.2495461021444498e-07
      z: 0.2980002760887146
    rotation:
      x: -0.0043707299046218395
      y: 0.7070946097373962
      z: 0.0043705180287361145
      w: -0.7070919275283813
---
transforms:
- header:
    stamp:
      sec: 111
      nanosec: 284038895
    frame_id: right_link_1
  child_frame_id: right_link_2
  transform:
    translation:
      x: 1.2288791140235844e-07
      y: 5.205338737823695e-08
      z: 0.09701260179281235
    rotation:
      x: -0.70710688829422
      y: 5.740375399909681e-06
      z: 5.844089628226357e-06
      w: 0.7071067690849304
---
transforms:
- header:
    stamp:
      sec: 111
      nanosec: 284038895
    frame_id: left_hand_index_metacarpals
  child_frame_id: left_hand_index_proximal
  transform:
    translation:
      x: 0.007369339000433683
      y: -2.382304842285521e-08
      z: -9.577047603670508e-05
    rotation:
      x: 5.879492093185945e-08
      y: 0.0002741662901826203
      z: -3.785825342106364e-08
      w: 1.0
---
transforms:
- header:
    stamp:
      sec: 111
      nanosec: 284038895
    frame_id: right_link_2
  child_frame_id: right_link_3
  transform:
    translation:
      x: -0.06947007030248642
      y: 2.2654855058590329e-07
      z: -3.8130806956360175e-08
    rotation:
      x: -0.0010077033657580614
      y: 0.7071073651313782
      z: -0.0010076956823468208
      w: 0.7071048617362976
---
transforms:
- header:
    stamp:
      sec: 111
      nanosec: 284038895
    frame_id: right_link_3
  child_frame_id: right_link_4
  transform:
    translation:
      x: 0.009998032823204994
      y: 2.0543920697946305e-07
      z: -0.23050643503665924
    rotation:
      x: 0.6064803004264832
      y: -0.36357051134109497
      z: 0.36356931924819946
      w: 0.6064780354499817
---
transforms:
- header:
    stamp:
      sec: 111
      nanosec: 284038895
    frame_id: right_link_4
  child_frame_id: right_link_5
  transform:
    translation:
      x: -0.010000127367675304
      y: -0.12899506092071533
      z: -7.411551194991262e-08
    rotation:
      x: -0.7070568203926086
      y: 0.008406181819736958
      z: 0.00840611383318901
      w: 0.7070567607879639
---
transforms:
- header:
    stamp:
      sec: 111
      nanosec: 284038895
    frame_id: left_hand_hand_base_link
  child_frame_id: left_hand_middle_metacarpals
  transform:
    translation:
      x: -0.00719929113984108
      y: -0.006660745479166508
      z: 0.11945997178554535
    rotation:
      x: 0.0012242681114003062
      y: 5.091978039217793e-08
      z: -1.571633583807852e-05
      w: 0.9999992847442627
---
transforms:
- header:
    stamp:
      sec: 111
      nanosec: 284038895
    frame_id: right_hand_middle_metacarpals
  child_frame_id: right_hand_middle_proximal
  transform:
    translation:
      x: 0.00736971152946353
      y: 7.332893403599883e-08
      z: -4.531271429186745e-07
    rotation:
      x: -2.1140473904779356e-07
      y: 0.0036230424884706736
      z: -5.852725735167041e-06
      w: 0.9999934434890747
---
transforms:
- header:
    stamp:
      sec: 111
      nanosec: 304014831
    frame_id: right_hand_middle_proximal
  child_frame_id: right_hand_middle_middle
  transform:
    translation:
      x: -0.004143856465816498
      y: 7.305060717044398e-05
      z: 0.044827282428741455
    rotation:
      x: -3.610039911450258e-08
      y: 0.006876661442220211
      z: -1.111794335884042e-05
      w: 0.9999763369560242
---
transforms:
- header:
    stamp:
      sec: 111
      nanosec: 304014831
    frame_id: left_hand_middle_proximal
  child_frame_id: left_hand_middle_middle
  transform:
    translation:
      x: -0.004143761470913887
      y: -1.4241199330911058e-08
      z: 0.04482732340693474
    rotation:
      x: -1.306065371409204e-07
      y: 0.014655902050435543
      z: 7.095417942082349e-08
      w: 0.9998925924301147
---
transforms:
- header:
    stamp:
      sec: 111
      nanosec: 304014831
    frame_id: chest_link
  child_frame_id: neck_link
  transform:
    translation:
      x: 3.252763747241261e-08
      y: 0.015499967150390148
      z: 0.35670167207717896
    rotation:
      x: -4.496284233823644e-08
      y: -5.391448354430395e-08
      z: 0.0024297754280269146
      w: 0.9999970197677612
---
transforms:
- header:
    stamp:
      sec: 111
      nanosec: 223320804
    frame_id: odom
  child_frame_id: base_footprint
  transform:
    translation:
      x: 0.9620164036750793
      y: 0.5173766613006592
      z: 0.0
    rotation:
      x: 0.0
      y: 0.0
      z: 0.537057239203176
      w: 0.8435458030358889
---
transforms:
- header:
    stamp:
      sec: 111
      nanosec: 243320804
    frame_id: odom
  child_frame_id: base_footprint
  transform:
    translation:
      x: 0.9620164036750793
      y: 0.5173766613006592
      z: 0.0
    rotation:
      x: 0.0
      y: 0.0
      z: 0.537057239203176
      w: 0.8435458030358889
---
transforms:
- header:
    stamp:
      sec: 111
      nanosec: 304014831
    frame_id: right_hand_pinky_proximal
  child_frame_id: right_hand_pinky_middle
  transform:
    translation:
      x: -0.003929333761334419
      y: 5.2331870392663404e-08
      z: 0.039829935878515244
    rotation:
      x: -3.320274544194035e-08
      y: 0.005572629161179066
      z: -1.505773497001428e-07
      w: 0.9999845027923584
---
transforms:
- header:
    stamp:
      sec: 111
      nanosec: 304014831
    frame_id: waist_link_1
  child_frame_id: waist_link_2
  transform:
    translation:
      x: 0.29000020027160645
      y: 7.567863491431126e-08
      z: -1.9695268349551043e-07
    rotation:
      x: 0.0020078218076378107
      y: -0.00044595234794542193
      z: 0.21682947874069214
      w: 0.9762073755264282
---
transforms:
- header:
    stamp:
      sec: 111
      nanosec: 304014831
    frame_id: waist_link_2
  child_frame_id: waist_link_3
  transform:
    translation:
      x: 0.3300001919269562
      y: 6.523508488953667e-08
      z: -1.2403248206283024e-07
    rotation:
      x: 0.002007906325161457
      y: 0.0004451763234101236
      z: -0.9762825965881348
      w: -0.21649017930030823
---
transforms:
- header:
    stamp:
      sec: 111
      nanosec: 304014831
    frame_id: right_hand_hand_base_link
  child_frame_id: right_hand_ring_proximal
  transform:
    translation:
      x: 0.00015995344438124448
      y: -0.013573149219155312
      z: 0.11972018331289291
    rotation:
      x: 1.96635951965618e-08
      y: 0.0035997615195810795
      z: -1.0215393331236555e-07
      w: 0.9999935030937195
---
transforms:
- header:
    stamp:
      sec: 111
      nanosec: 304014831
    frame_id: left_hand_pinky_proximal
  child_frame_id: left_hand_pinky_middle
  transform:
    translation:
      x: -0.003929246682673693
      y: -8.87128379645219e-08
      z: 0.039829615503549576
    rotation:
      x: -1.0813447204327531e-07
      y: 0.015943801030516624
      z: 6.30682066571353e-08
      w: 0.9998728632926941
---
transforms:
- header:
    stamp:
      sec: 111
      nanosec: 304014831
    frame_id: left_hand_pinky_middle
  child_frame_id: left_hand_pinky_distal
  transform:
    translation:
      x: 0.0060127186588943005
      y: 4.975946876761839e-10
      z: 0.026441605761647224
    rotation:
      x: 6.245764438972401e-08
      y: -1.0502277291379869e-05
      z: -3.318321546430525e-07
      w: 1.0
---
transforms:
- header:
    stamp:
      sec: 111
      nanosec: 304014831
    frame_id: right_hand_ring_middle
  child_frame_id: right_hand_ring_distal
  transform:
    translation:
      x: 0.0060128020122647285
      y: 6.197112156769435e-08
      z: 0.02644115313887596
    rotation:
      x: -9.33387482859871e-08
      y: 7.4432655310374685e-06
      z: 4.3562444318467897e-08
      w: 1.0
---
transforms:
- header:
    stamp:
      sec: 111
      nanosec: 304014831
    frame_id: left_link_1
  child_frame_id: left_link_2
  transform:
    translation:
      x: -5.027492022691149e-08
      y: 1.0883226764235587e-08
      z: -0.09701269865036011
    rotation:
      x: 0.7071080803871155
      y: -5.217252692091279e-07
      z: 7.579174052807502e-07
      w: 0.7071055173873901
---
transforms:
- header:
    stamp:
      sec: 111
      nanosec: 304014831
    frame_id: left_link_2
  child_frame_id: left_link_3
  transform:
    translation:
      x: -0.06949442625045776
      y: 5.6710611318067095e-08
      z: 5.6166815198821496e-08
    rotation:
      x: -0.00115945003926754
      y: 0.707107424736023
      z: 0.0011592551600188017
      w: -0.7071042656898499
---
transforms:
- header:
    stamp:
      sec: 111
      nanosec: 304014831
    frame_id: left_link_3
  child_frame_id: left_link_4
  transform:
    translation:
      x: 0.010000063106417656
      y: 1.0561859653535066e-07
      z: 0.23050536215305328
    rotation:
      x: -0.7071069478988647
      y: 1.74776250787545e-05
      z: 1.7475837012170814e-05
      w: 0.7071066498756409
---
transforms:
- header:
    stamp:
      sec: 111
      nanosec: 304014831
    frame_id: left_hand_ring_middle
  child_frame_id: left_hand_ring_distal
  transform:
    translation:
      x: 0.006012914702296257
      y: -2.9249338950876336e-08
      z: 0.02644158899784088
    rotation:
      x: -1.0821540996630574e-07
      y: -1.2314031664573122e-05
      z: -6.409600850076913e-09
      w: 1.0
---
transforms:
- header:
    stamp:
      sec: 111
      nanosec: 304014831
    frame_id: left_link_4
  child_frame_id: left_link_5
  transform:
    translation:
      x: -0.009999927133321762
      y: -0.12899494171142578
      z: 1.3376649121710216e-07
    rotation:
      x: 0.7071073651313782
      y: -0.0011516065569594502
      z: 0.0011517566163092852
      w: 0.7071043848991394
---
transforms:
- header:
    stamp:
      sec: 111
      nanosec: 304014831
    frame_id: left_hand_hand_base_link
  child_frame_id: left_hand_thumb_metacarpals_base1
  transform:
    translation:
      x: -0.007521134801208973
      y: -0.022278057411313057
      z: 0.040249597281217575
    rotation:
      x: -0.06839569658041
      y: -3.076216330555326e-07
      z: -6.06070571507189e-08
      w: 0.9976583123207092
---
transforms:
- header:
    stamp:
      sec: 111
      nanosec: 304014831
    frame_id: left_hand_thumb_metacarpals_base1
  child_frame_id: left_hand_thumb_metacarpals_base2
  transform:
    translation:
      x: 0.035070907324552536
      y: -0.003301365068182349
      z: -2.7656832912725804e-07
    rotation:
      x: -1.1285747802958213e-07
      y: 2.3042974817144568e-07
      z: -0.03364923968911171
      w: 0.9994337558746338
---
transforms:
- header:
    stamp:
      sec: 111
      nanosec: 304014831
    frame_id: right_hand_hand_base_link
  child_frame_id: right_hand_index_metacarpals
  transform:
    translation:
      x: -0.0071999686770141125
      y: 0.03077828511595726
      z: 0.11935561150312424
    rotation:
      x: -0.0009094657725654542
      y: 1.3510088159307543e-08
      z: -9.49959257923183e-08
      w: 0.9999996423721313
---
transforms:
- header:
    stamp:
      sec: 111
      nanosec: 304014831
    frame_id: left_hand_thumb_metacarpals_base2
  child_frame_id: left_hand_thumb_metacarpals
  transform:
    translation:
      x: 0.01613020710647106
      y: -0.016305064782500267
      z: 0.0068608541041612625
    rotation:
      x: 0.38914787769317627
      y: -0.16242122650146484
      z: 0.8367826342582703
      w: 0.3492538332939148
---
transforms:
- header:
    stamp:
      sec: 111
      nanosec: 320288888
    frame_id: left_hand_thumb_metacarpals
  child_frame_id: left_hand_thumb_proximal
  transform:
    translation:
      x: 0.008164226077497005
      y: -0.0015500657027587295
      z: 0.055634066462516785
    rotation:
      x: 9.411963475258744e-08
      y: 0.020844629034399986
      z: 1.9204884438295267e-07
      w: 0.9997828006744385
---
transforms:
- header:
    stamp:
      sec: 111
      nanosec: 320288888
    frame_id: right_hand_index_proximal
  child_frame_id: right_hand_index_middle
  transform:
    translation:
      x: -0.0030531862284988165
      y: -4.0662605726993206e-08
      z: 0.03990671783685684
    rotation:
      x: 4.845144771503662e-11
      y: 0.009878106415271759
      z: 1.0165896213720771e-07
      w: 0.9999512434005737
---
transforms:
- header:
    stamp:
      sec: 111
      nanosec: 320288888
    frame_id: right_hand_index_middle
  child_frame_id: right_hand_index_distal
  transform:
    translation:
      x: 0.005307100713253021
      y: 1.7195663559732566e-08
      z: 0.02659209631383419
    rotation:
      x: -6.395333684849902e-08
      y: -1.4940146684239153e-05
      z: -1.772550888290425e-07
      w: 1.0
---
transforms:
- header:
    stamp:
      sec: 111
      nanosec: 320288888
    frame_id: right_link_3
  child_frame_id: right_link_4
  transform:
    translation:
      x: 0.009998244233429432
      y: 1.7320164147349715e-07
      z: -0.23050566017627716
    rotation:
      x: 0.6064801216125488
      y: -0.36357077956199646
      z: 0.3635692596435547
      w: 0.6064780354499817
---
transforms:
- header:
    stamp:
      sec: 111
      nanosec: 320288888
    frame_id: right_link_4
  child_frame_id: right_link_5
  transform:
    translation:
      x: -0.009999983012676239
      y: -0.1289946734905243
      z: -1.4204763942871068e-07
    rotation:
      x: -0.7070567011833191
      y: 0.008406243287026882
      z: 0.008406258188188076
      w: 0.7070569396018982
---
transforms:
- header:
    stamp:
      sec: 111
      nanosec: 320288888
    frame_id: base_link
  child_frame_id: right_wheel_link
  transform:
    translation:
      x: 0.009745660237967968
      y: -0.12777000665664673
      z: 0.04780014976859093
    rotation:
      x: -0.49468234181404114
      y: -0.5052616596221924
      z: -0.5052616596221924
      w: 0.4946824014186859
---
transforms:
- header:
    stamp:
      sec: 111
      nanosec: 320288888
    frame_id: right_hand_middle_proximal
  child_frame_id: right_hand_middle_middle
  transform:
    translation:
      x: -0.0041440329514443874
      y: 7.333713438129053e-05
      z: 0.04482731223106384
    rotation:
      x: 2.1016236928517174e-07
      y: 0.006875946652144194
      z: -1.107107618736336e-05
      w: 0.9999763369560242
---
transforms:
- header:
    stamp:
      sec: 111
      nanosec: 283320804
    frame_id: odom
  child_frame_id: base_footprint
  transform:
    translation:
      x: 0.9620164036750793
      y: 0.5173766613006592
      z: 0.0
    rotation:
      x: 0.0
      y: 0.0
      z: 0.5370574905993919
      w: 0.8435456429803215
---
transforms:
- header:
    stamp:
      sec: 111
      nanosec: 320288888
    frame_id: left_hand_hand_base_link
  child_frame_id: left_hand_middle_metacarpals
  transform:
    translation:
      x: -0.007199374958872795
      y: -0.00666069844737649
      z: 0.11945977807044983
    rotation:
      x: 0.0012242478551343083
      y: -1.1767008700758197e-08
      z: -1.5923800674499944e-05
      w: 0.9999992847442627
---
transforms:
- header:
    stamp:
      sec: 111
      nanosec: 320288888
    frame_id: right_hand_hand_base_link
  child_frame_id: right_hand_pinky_proximal
  transform:
    translation:
      x: 0.00015980830357875675
      y: -0.03363042324781418
      z: 0.1127157211303711
    rotation:
      x: -2.1871339583867666e-07
      y: 0.0037796127144247293
      z: 1.656030512720008e-08
      w: 0.999992847442627
---
transforms:
- header:
    stamp:
      sec: 111
      nanosec: 320288888
    frame_id: neck_link
  child_frame_id: head_link
  transform:
    translation:
      x: 9.794648292427155e-08
      y: 4.996169877813372e-08
      z: 0.07283491641283035
    rotation:
      x: -0.0003871112421620637
      y: 0.7071080803871155
      z: -0.0003872383094858378
      w: 0.707105278968811
---
transforms:
- header:
    stamp:
      sec: 111
      nanosec: 320288888
    frame_id: left_hand_middle_proximal
  child_frame_id: left_hand_middle_middle
  transform:
    translation:
      x: -0.004143828526139259
      y: 7.534165291644968e-08
      z: 0.04482746496796608
    rotation:
      x: 4.193800862140051e-08
      y: 0.014655154198408127
      z: 2.158719070166626e-07
      w: 0.9998926520347595
---
transforms:
- header:
    stamp:
      sec: 111
      nanosec: 320288888
    frame_id: body_base_link
  child_frame_id: waist_link_1
  transform:
    translation:
      x: -9.112821999224252e-07
      y: 6.424037565011531e-06
      z: -4.285533577785827e-05
    rotation:
      x: 0.5009640455245972
      y: 0.4990347921848297
      z: 0.5000857710838318
      w: -0.49991363286972046
---
transforms:
- header:
    stamp:
      sec: 111
      nanosec: 320288888
    frame_id: waist_link_1
  child_frame_id: waist_link_2
  transform:
    translation:
      x: 0.29000014066696167
      y: -1.5776064898886943e-09
      z: -4.487209537273884e-08
    rotation:
      x: 0.0020077619701623917
      y: -0.000445846701040864
      z: 0.21682940423488617
      w: 0.9762073159217834
---
transforms:
- header:
    stamp:
      sec: 111
      nanosec: 320288888
    frame_id: waist_link_2
  child_frame_id: waist_link_3
  transform:
    translation:
      x: 0.33000028133392334
      y: -7.205306218338592e-08
      z: -4.2844352066140345e-08
    rotation:
      x: 0.0020079591777175665
      y: 0.0004451849090401083
      z: -0.9762826561927795
      w: -0.21649028360843658
---
transforms:
- header:
    stamp:
      sec: 111
      nanosec: 320288888
    frame_id: right_hand_ring_proximal
  child_frame_id: right_hand_ring_middle
  transform:
    translation:
      x: -0.003929612692445517
      y: 1.1495608731593165e-07
      z: 0.03982985392212868
    rotation:
      x: -8.011301133592497e-08
      y: 0.005808226764202118
      z: 5.780400513799577e-08
      w: 0.9999831914901733
---
transforms:
- header:
    stamp:
      sec: 111
      nanosec: 335337733
    frame_id: right_hand_ring_middle
  child_frame_id: right_hand_ring_distal
  transform:
    translation:
      x: 0.006012930069118738
      y: -1.1813119726866717e-07
      z: 0.02644064836204052
    rotation:
      x: -6.534358476528723e-08
      y: 7.455154900526395e-06
      z: -7.151184178155745e-08
      w: 1.0
---
transforms:
- header:
    stamp:
      sec: 111
      nanosec: 335337733
    frame_id: right_hand_hand_base_link
  child_frame_id: right_hand_thumb_metacarpals_base1
  transform:
    translation:
      x: -0.0075210765935480595
      y: 0.022277718409895897
      z: 0.04024989902973175
    rotation:
      x: 0.1244080439209938
      y: -1.3172393664717674e-07
      z: 1.3491872152826545e-07
      w: 0.9922311305999756
---
transforms:
- header:
    stamp:
      sec: 111
      nanosec: 335337733
    frame_id: left_link_1
  child_frame_id: left_link_2
  transform:
    translation:
      x: 1.8125031431281968e-07
      y: -1.1859759041499274e-07
      z: -0.0970127135515213
    rotation:
      x: 0.7071080207824707
      y: -7.816548190930916e-07
      z: 8.638008921479923e-07
      w: 0.7071055769920349
---
transforms:
- header:
    stamp:
      sec: 111
      nanosec: 335337733
    frame_id: right_hand_thumb_metacarpals_base1
  child_frame_id: right_hand_thumb_metacarpals_base2
  transform:
    translation:
      x: 0.035070840269327164
      y: 0.003301499877125025
      z: -3.174090181801148e-07
    rotation:
      x: 1.429107641115479e-07
      y: 1.3883339811116002e-08
      z: 0.000232844176935032
      w: 1.0
---
transforms:
- header:
    stamp:
      sec: 111
      nanosec: 335337733
    frame_id: left_link_2
  child_frame_id: left_link_3
  transform:
    translation:
      x: -0.06949479877948761
      y: 1.5939964015387886e-08
      z: -7.498153564711174e-08
    rotation:
      x: -0.0011593226809054613
      y: 0.7071072459220886
      z: 0.0011593294329941273
      w: -0.707104504108429
---
transforms:
- header:
    stamp:
      sec: 111
      nanosec: 335337733
    frame_id: left_hand_ring_middle
  child_frame_id: left_hand_ring_distal
  transform:
    translation:
      x: 0.006012945435941219
      y: 2.2997303616989484e-08
      z: 0.026441600173711777
    rotation:
      x: -1.360940871109051e-07
      y: -1.2341422007011715e-05
      z: 1.1303932012651785e-07
      w: 1.0
---
transforms:
- header:
    stamp:
      sec: 111
      nanosec: 335337733
    frame_id: left_hand_hand_base_link
  child_frame_id: left_hand_thumb_metacarpals_base1
  transform:
    translation:
      x: -0.007521091029047966
      y: -0.02227800153195858
      z: 0.04024991765618324
    rotation:
      x: -0.06839524954557419
      y: -1.6374852407352591e-07
      z: -2.0593307681338047e-07
      w: 0.9976583123207092
---
transforms:
- header:
    stamp:
      sec: 111
      nanosec: 335337733
    frame_id: left_link_4
  child_frame_id: left_link_5
  transform:
    translation:
      x: -0.010000080801546574
      y: -0.12899480760097504
      z: 1.0265922156804663e-07
    rotation:
      x: 0.7071071863174438
      y: -0.0011515420628711581
      z: 0.0011515868827700615
      w: 0.7071045637130737
---
transforms:
- header:
    stamp:
      sec: 111
      nanosec: 335337733
    frame_id: left_link_5
  child_frame_id: left_link_6
  transform:
    translation:
      x: 8.688522967759127e-08
      y: 1.0899856306423317e-07
      z: 0.09000489860773087
    rotation:
      x: -0.7071068286895752
      y: -0.00026189591153524816
      z: -0.000261756096733734
      w: 0.7071067094802856
---
transforms:
- header:
    stamp:
      sec: 111
      nanosec: 335337733
    frame_id: left_hand_thumb_metacarpals_base2
  child_frame_id: left_hand_thumb_metacarpals
  transform:
    translation:
      x: 0.016130197793245316
      y: -0.01630508154630661
      z: 0.006860744673758745
    rotation:
      x: 0.38914743065834045
      y: -0.16242122650146484
      z: 0.8367827534675598
      w: 0.34925371408462524
---
transforms:
- header:
    stamp:
      sec: 111
      nanosec: 335337733
    frame_id: right_hand_index_metacarpals
  child_frame_id: right_hand_index_proximal
  transform:
    translation:
      x: 0.007369818165898323
      y: 5.442609918304697e-08
      z: -4.914710416414891e-07
    rotation:
      x: -2.3706398621925473e-08
      y: 0.0014077702071517706
      z: -2.5314474783044716e-07
      w: 0.9999990463256836
---
transforms:
- header:
    stamp:
      sec: 111
      nanosec: 335337733
    frame_id: chest_link
  child_frame_id: right_link_1
  transform:
    translation:
      x: -0.10298767685890198
      y: -7.465121854011159e-08
      z: 0.2980002462863922
    rotation:
      x: -0.004370557144284248
      y: 0.7070947885513306
      z: 0.004370409995317459
      w: -0.7070919275283813
---
transforms:
- header:
    stamp:
      sec: 111
      nanosec: 335337733
    frame_id: left_hand_thumb_proximal
  child_frame_id: left_hand_thumb_distal
  transform:
    translation:
      x: -0.0015549813397228718
      y: 0.0014998223632574081
      z: 0.034527670592069626
    rotation:
      x: 3.1452248094865354e-07
      y: 0.0006933429394848645
      z: 1.0034706576789176e-07
      w: 0.9999997615814209
---
transforms:
- header:
    stamp:
      sec: 111
      nanosec: 335337733
    frame_id: right_hand_index_middle
  child_frame_id: right_hand_index_distal
  transform:
    translation:
      x: 0.005306742619723082
      y: 1.168433350073883e-09
      z: 0.02659180574119091
    rotation:
      x: -2.203454982918629e-07
      y: -1.482795960328076e-05
      z: 8.732033762726132e-08
      w: 1.0
---
transforms:
- header:
    stamp:
      sec: 111
      nanosec: 335337733
    frame_id: left_hand_hand_base_link
  child_frame_id: left_hand_index_metacarpals
  transform:
    translation:
      x: -0.007199412677437067
      y: -0.030777979642152786
      z: 0.11945001035928726
    rotation:
      x: 0.0013800532324239612
      y: 1.0619424273272671e-07
      z: -1.8024866221821867e-05
      w: 0.9999991059303284
---
transforms:
- header:
    stamp:
      sec: 111
      nanosec: 335337733
    frame_id: left_hand_index_proximal
  child_frame_id: left_hand_index_middle
  transform:
    translation:
      x: -0.003052620915696025
      y: -1.1600965876823466e-07
      z: 0.03990656137466431
    rotation:
      x: 1.2178254849004588e-07
      y: 0.018032388761639595
      z: 2.9299408765837143e-07
      w: 0.9998374581336975
---
transforms:
- header:
    stamp:
      sec: 111
      nanosec: 303320804
    frame_id: odom
  child_frame_id: base_footprint
  transform:
    translation:
      x: 0.9620164036750793
      y: 0.5173766613006592
      z: 0.0
    rotation:
      x: 0.0
      y: 0.0
      z: 0.5370574905993919
      w: 0.8435456429803215
---
transforms:
- header:
    stamp:
      sec: 111
      nanosec: 335337733
    frame_id: left_hand_index_middle
  child_frame_id: left_hand_index_distal
  transform:
    translation:
      x: 0.005307010840624571
      y: 3.9867945389460147e-08
      z: 0.026591520756483078
    rotation:
      x: -7.634164234104901e-08
      y: -1.5367930245702155e-05
      z: -2.1794827276266915e-08
      w: 1.0
---
transforms:
- header:
    stamp:
      sec: 111
      nanosec: 335337733
    frame_id: right_hand_middle_middle
  child_frame_id: right_hand_middle_distal
  transform:
    translation:
      x: 0.0036294672172516584
      y: 5.156154293217696e-05
      z: 0.03161199390888214
    rotation:
      x: -3.0265368877735455e-07
      y: -3.563525524441502e-06
      z: -1.6387579648835526e-07
      w: 1.0
---
transforms:
- header:
    stamp:
      sec: 111
      nanosec: 335337733
    frame_id: left_hand_hand_base_link
  child_frame_id: left_hand_middle_metacarpals
  transform:
    translation:
      x: -0.0071993726305663586
      y: -0.006660737097263336
      z: 0.11945980042219162
    rotation:
      x: 0.0012241897638887167
      y: 1.4482291810224979e-08
      z: -1.5969291780493222e-05
      w: 0.9999992847442627
---
transforms:
- header:
    stamp:
      sec: 111
      nanosec: 335337733
    frame_id: left_hand_middle_metacarpals
  child_frame_id: left_hand_middle_proximal
  transform:
    translation:
      x: 0.0073692286387085915
      y: 2.983200886319537e-08
      z: -9.520986350253224e-05
    rotation:
      x: 2.027936716331169e-07
      y: 0.0018491469090804458
      z: -1.6168704064511985e-07
      w: 0.9999982714653015
---
transforms:
- header:
    stamp:
      sec: 111
      nanosec: 335337733
    frame_id: chest_link
  child_frame_id: neck_link
  transform:
    translation:
      x: -1.0812897954792788e-07
      y: 0.015499966219067574
      z: 0.35670140385627747
    rotation:
      x: -1.8953810965172124e-08
      y: -2.8118890327277768e-08
      z: 0.0024295432958751917
      w: 0.999997079372406
---
transforms:
- header:
    stamp:
      sec: 111
      nanosec: 335337733
    frame_id: neck_link
  child_frame_id: head_link
  transform:
    translation:
      x: -1.0235429925842254e-07
      y: -6.176143330094419e-08
      z: 0.0728347972035408
    rotation:
      x: -0.0003872556844726205
      y: 0.7071080207824707
      z: -0.00038705565384589136
      w: 0.7071054577827454
---
transforms:
- header:
    stamp:
      sec: 111
      nanosec: 335337733
    frame_id: body_base_link
  child_frame_id: waist_link_1
  transform:
    translation:
      x: -9.112803809330217e-07
      y: 6.424033472285373e-06
      z: -4.285533577785827e-05
    rotation:
      x: 0.5009641051292419
      y: 0.49903470277786255
      z: 0.5000858306884766
      w: -0.49991363286972046
---
transforms:
- header:
    stamp:
      sec: 111
      nanosec: 335337733
    frame_id: left_hand_hand_base_link
  child_frame_id: left_hand_pinky_proximal
  transform:
    translation:
      x: 0.0001598713279236108
      y: 0.03363008797168732
      z: 0.1127195805311203
    rotation:
      x: -7.626761089341016e-08
      y: 0.0002513066865503788
      z: -1.7872154955966835e-07
      w: 1.0
---
transforms:
- header:
    stamp:
      sec: 111
      nanosec: 335337733
    frame_id: right_hand_ring_proximal
  child_frame_id: right_hand_ring_middle
  transform:
    translation:
      x: -0.003929530270397663
      y: 2.0066178052502437e-08
      z: 0.039829742163419724
    rotation:
      x: 1.8697456027894077e-07
      y: 0.005808752030134201
      z: -1.4874960641009238e-07
      w: 0.9999831318855286
---
transforms:
- header:
    stamp:
      sec: 111
      nanosec: 335337733
    frame_id: waist_link_2
  child_frame_id: waist_link_3
  transform:
    translation:
      x: 0.33000022172927856
      y: 2.658821252055077e-08
      z: -1.6717307005365e-07
    rotation:
      x: 0.0020078534726053476
      y: 0.00044519436778500676
      z: -0.9762825965881348
      w: -0.21649028360843658
---
transforms:
- header:
    stamp:
      sec: 111
      nanosec: 335337733
    frame_id: waist_link_3
  child_frame_id: chest_link
  transform:
    translation:
      x: 0.0
      y: 0.0
      z: 0.0
    rotation:
      x: 1.614643588254694e-05
      y: 0.7071080207824707
      z: -1.6144258552230895e-05
      w: -0.7071055769920349
---
transforms:
- header:
    stamp:
      sec: 111
      nanosec: 335337733
    frame_id: left_hand_hand_base_link
  child_frame_id: left_hand_ring_proximal
  transform:
    translation:
      x: 0.0001599180104676634
      y: 0.013572919182479382
      z: 0.11971992254257202
    rotation:
      x: -7.572018745349851e-08
      y: 0.00025667008594609797
      z: -4.0805403500598914e-07
      w: 1.0
---
transforms:
- header:
    stamp:
      sec: 111
      nanosec: 335337733
    frame_id: chest_link
  child_frame_id: left_link_1
  transform:
    translation:
      x: 0.10298985987901688
      y: -2.0345032325508328e-08
      z: 0.2980000078678131
    rotation:
      x: 0.0005127282347530127
      y: 0.7071079611778259
      z: -0.0005128997145220637
      w: -0.707105278968811
---
transforms:
- header:
    stamp:
      sec: 111
      nanosec: 335337733
    frame_id: left_link_1
  child_frame_id: left_link_2
  transform:
    translation:
      x: 1.8125031431281968e-07
      y: -1.1859759041499274e-07
      z: -0.0970127135515213
    rotation:
      x: 0.7071080207824707
      y: -7.816548190930916e-07
      z: 8.638008921479923e-07
      w: 0.7071055769920349
---
transforms:
- header:
    stamp:
      sec: 111
      nanosec: 335337733
    frame_id: left_hand_ring_middle
  child_frame_id: left_hand_ring_distal
  transform:
    translation:
      x: 0.006012945435941219
      y: 2.2997303616989484e-08
      z: 0.026441600173711777
    rotation:
      x: -1.360940871109051e-07
      y: -1.2341422007011715e-05
      z: 1.1303932012651785e-07
      w: 1.0
---
transforms:
- header:
    stamp:
      sec: 111
      nanosec: 335337733
    frame_id: right_hand_thumb_metacarpals
  child_frame_id: right_hand_thumb_proximal
  transform:
    translation:
      x: 0.008164314553141594
      y: -0.001449815696105361
      z: 0.05563361942768097
    rotation:
      x: -1.692767312988508e-07
      y: 0.02916887402534485
      z: 1.826895612566659e-07
      w: 0.9995745420455933
---
transforms:
- header:
    stamp:
      sec: 111
      nanosec: 335337733
    frame_id: left_link_3
  child_frame_id: left_link_4
  transform:
    translation:
      x: 0.00999999139457941
      y: 9.339579065681392e-08
      z: 0.23050524294376373
    rotation:
      x: -0.7071067690849304
      y: 1.745393092278391e-05
      z: 1.7478985682828352e-05
      w: 0.7071068286895752
---
transforms:
- header:
    stamp:
      sec: 111
      nanosec: 335337733
    frame_id: left_hand_thumb_metacarpals_base1
  child_frame_id: left_hand_thumb_metacarpals_base2
  transform:
    translation:
      x: 0.035070911049842834
      y: -0.0033013487700372934
      z: -2.7223853749092086e-07
    rotation:
      x: 1.0617621626352047e-07
      y: 2.438982846797444e-07
      z: -0.03364939987659454
      w: 0.9994337558746338
---
transforms:
- header:
    stamp:
      sec: 111
      nanosec: 335337733
    frame_id: left_hand_thumb_metacarpals_base2
  child_frame_id: left_hand_thumb_metacarpals
  transform:
    translation:
      x: 0.016130197793245316
      y: -0.01630508154630661
      z: 0.006860744673758745
    rotation:
      x: 0.38914743065834045
      y: -0.16242122650146484
      z: 0.8367827534675598
      w: 0.34925371408462524
---
transforms:
- header:
    stamp:
      sec: 111
      nanosec: 358401367
    frame_id: right_hand_index_metacarpals
  child_frame_id: right_hand_index_proximal
  transform:
    translation:
      x: 0.007369873579591513
      y: -9.979667936477199e-08
      z: -2.876509483940026e-07
    rotation:
      x: 9.027667502436998e-09
      y: 0.0014073301572352648
      z: 8.595284839429951e-08
      w: 0.9999989867210388
---
transforms:
- header:
    stamp:
      sec: 111
      nanosec: 358401367
    frame_id: left_link_6
  child_frame_id: left_link_7
  transform:
    translation:
      x: 2.9627091890915835e-08
      y: -0.05599968507885933
      z: 1.0746737189037958e-07
    rotation:
      x: 0.00039439520332962275
      y: 0.7071078419685364
      z: 0.000394744158256799
      w: 0.7071055769920349
---
transforms:
- header:
    stamp:
      sec: 111
      nanosec: 358401367
    frame_id: left_hand_thumb_proximal
  child_frame_id: left_hand_thumb_distal
  transform:
    translation:
      x: -0.0015548925148323178
      y: 0.001499901176430285
      z: 0.03452758863568306
    rotation:
      x: -2.3408534843838424e-07
      y: 0.0006933598779141903
      z: -1.619796208274238e-08
      w: 0.9999997615814209
---
transforms:
- header:
    stamp:
      sec: 111
      nanosec: 358401367
    frame_id: left_hand_hand_base_link
  child_frame_id: left_hand_index_metacarpals
  transform:
    translation:
      x: -0.007199321873486042
      y: -0.03077808953821659
      z: 0.11945006251335144
    rotation:
      x: 0.0013798782601952553
      y: 2.2718457159953687e-07
      z: -1.7791599020711146e-05
      w: 0.9999990463256836
---
transforms:
- header:
    stamp:
      sec: 111
      nanosec: 358401367
    frame_id: left_hand_index_metacarpals
  child_frame_id: left_hand_index_proximal
  transform:
    translation:
      x: 0.007369362749159336
      y: 3.3264157650592097e-08
      z: -9.537936421111226e-05
    rotation:
      x: 1.7995691337091557e-07
      y: 0.0002740768250077963
      z: 7.806936430654332e-09
      w: 1.0
---
transforms:
- header:
    stamp:
      sec: 111
      nanosec: 323320804
    frame_id: odom
  child_frame_id: base_footprint
  transform:
    translation:
      x: 0.9620164036750793
      y: 0.5173766613006592
      z: 0.0
    rotation:
      x: 0.0
      y: 0.0
      z: 0.5370574905993919
      w: 0.8435456429803215
---
transforms:
- header:
    stamp:
      sec: 111
      nanosec: 358401367
    frame_id: left_hand_index_proximal
  child_frame_id: left_hand_index_middle
  transform:
    translation:
      x: -0.0030527072958648205
      y: -1.1749059325438793e-07
      z: 0.03990650922060013
    rotation:
      x: -6.341028324641229e-08
      y: 0.01803422160446644
      z: 1.4213900101367472e-07
      w: 0.9998373985290527
---
transforms:
- header:
    stamp:
      sec: 111
      nanosec: 358401367
    frame_id: right_hand_middle_proximal
  child_frame_id: right_hand_middle_middle
  transform:
    translation:
      x: -0.004143914673477411
      y: 7.320009171962738e-05
      z: 0.04482734948396683
    rotation:
      x: 2.0722924887195404e-07
      y: 0.006876214407384396
      z: -1.1066753359045833e-05
      w: 0.999976396560669
---
transforms:
- header:
    stamp:
      sec: 111
      nanosec: 358401367
    frame_id: left_hand_index_middle
  child_frame_id: left_hand_index_distal
  transform:
    translation:
      x: 0.005306981969624758
      y: 2.2292592660733135e-08
      z: 0.026591647416353226
    rotation:
      x: 2.1933143301566815e-08
      y: -1.5439687558682635e-05
      z: -1.2520213488187437e-07
      w: 1.0
---
transforms:
- header:
    stamp:
      sec: 111
      nanosec: 358401367
    frame_id: right_link_5
  child_frame_id: right_link_6
  transform:
    translation:
      x: 1.8448433536377706e-07
      y: 5.1387132771196775e-08
      z: -0.09000496566295624
    rotation:
      x: 0.7071067690849304
      y: 0.001446277485229075
      z: -0.001446387730538845
      w: 0.7071039080619812
---
transforms:
- header:
    stamp:
      sec: 111
      nanosec: 358401367
    frame_id: right_hand_hand_base_link
  child_frame_id: right_hand_pinky_proximal
  transform:
    translation:
      x: 0.00015973506378941238
      y: -0.033630359917879105
      z: 0.11271597445011139
    rotation:
      x: -3.457449082588937e-08
      y: 0.003779997816309333
      z: 2.9619926067425695e-08
      w: 0.9999929070472717
---
transforms:
- header:
    stamp:
      sec: 111
      nanosec: 358401367
    frame_id: left_hand_middle_proximal
  child_frame_id: left_hand_middle_middle
  transform:
    translation:
      x: -0.004143917467445135
      y: 2.8385576555933767e-08
      z: 0.04482760652899742
    rotation:
      x: -7.221339615171019e-08
      y: 0.0146555807441473
      z: -1.1853849457565957e-07
      w: 0.9998925924301147
---
transforms:
- header:
    stamp:
      sec: 111
      nanosec: 358401367
    frame_id: right_hand_pinky_middle
  child_frame_id: right_hand_pinky_distal
  transform:
    translation:
      x: 0.006012558005750179
      y: 1.830675167013851e-08
      z: 0.02644110657274723
    rotation:
      x: 1.661068793623599e-08
      y: 0.0005777335609309375
      z: 2.6959067866982878e-08
      w: 0.9999998807907104
---
transforms:
- header:
    stamp:
      sec: 111
      nanosec: 358401367
    frame_id: neck_link
  child_frame_id: head_link
  transform:
    translation:
      x: -1.421308937210597e-08
      y: -3.597430975332827e-08
      z: 0.07283443957567215
    rotation:
      x: -0.000387220032280311
      y: 0.7071079611778259
      z: -0.0003870936925522983
      w: 0.7071053981781006
---
transforms:
- header:
    stamp:
      sec: 111
      nanosec: 358401367
    frame_id: left_hand_hand_base_link
  child_frame_id: left_hand_pinky_proximal
  transform:
    translation:
      x: 0.000159891540533863
      y: 0.0336301289498806
      z: 0.11271974444389343
    rotation:
      x: -6.41568718151575e-08
      y: 0.0002528818731661886
      z: 6.441621280828258e-08
      w: 1.0
---
transforms:
- header:
    stamp:
      sec: 111
      nanosec: 358401367
    frame_id: right_hand_ring_proximal
  child_frame_id: right_hand_ring_middle
  transform:
    translation:
      x: -0.0039296019822359085
      y: 9.089079355817375e-08
      z: 0.03982996568083763
    rotation:
      x: -2.939934340417949e-08
      y: 0.0058083487674593925
      z: 1.0152453988609977e-08
      w: 0.9999831318855286
---
transforms:
- header:
    stamp:
      sec: 111
      nanosec: 358401367
    frame_id: right_hand_ring_middle
  child_frame_id: right_hand_ring_distal
  transform:
    translation:
      x: 0.006012880243360996
      y: 3.3489971684730335e-08
      z: 0.026441123336553574
    rotation:
      x: 4.2680742495804225e-08
      y: 7.455386821675347e-06
      z: 1.1051979953435875e-07
      w: 1.0
---
transforms:
- header:
    stamp:
      sec: 111
      nanosec: 358401367
    frame_id: waist_link_2
  child_frame_id: waist_link_3
  transform:
    translation:
      x: 0.330000102519989
      y: -5.67779956384129e-09
      z: -1.1016028622634622e-07
    rotation:
      x: 0.0020078751258552074
      y: 0.0004452190187294036
      z: -0.9762825965881348
      w: -0.21649016439914703
---
transforms:
- header:
    stamp:
      sec: 111
      nanosec: 376399851
    frame_id: right_hand_hand_base_link
  child_frame_id: right_hand_thumb_metacarpals_base1
  transform:
    translation:
      x: -0.007520950865000486
      y: 0.022277744486927986
      z: 0.0402497835457325
    rotation:
      x: 0.12440814077854156
      y: 9.142477352952483e-08
      z: -1.1917515507775533e-07
      w: 0.9922311902046204
---
transforms:
- header:
    stamp:
      sec: 111
      nanosec: 376399851
    frame_id: left_hand_hand_base_link
  child_frame_id: left_hand_ring_proximal
  transform:
    translation:
      x: 0.00015983486082404852
      y: 0.013573026284575462
      z: 0.11972001194953918
    rotation:
      x: -6.30862899697604e-08
      y: 0.0002578234707470983
      z: 1.1306439517966282e-07
      w: 1.0
---
transforms:
- header:
    stamp:
      sec: 111
      nanosec: 376399851
    frame_id: left_hand_ring_middle
  child_frame_id: left_hand_ring_distal
  transform:
    translation:
      x: 0.006013053003698587
      y: 3.6879876930129285e-09
      z: 0.026441354304552078
    rotation:
      x: 3.158860550911413e-08
      y: -1.2639032320294064e-05
      z: 1.610962812037542e-07
      w: 1.0
---
transforms:
- header:
    stamp:
      sec: 111
      nanosec: 376399851
    frame_id: right_hand_thumb_metacarpals_base2
  child_frame_id: right_hand_thumb_metacarpals
  transform:
    translation:
      x: 0.016129836440086365
      y: 0.01630484126508236
      z: 0.006860893685370684
    rotation:
      x: -0.38541460037231445
      y: -0.1608653962612152
      z: -0.8385066986083984
      w: 0.34997791051864624
---
transforms:
- header:
    stamp:
      sec: 111
      nanosec: 376399851
    frame_id: left_hand_hand_base_link
  child_frame_id: left_hand_thumb_metacarpals_base1
  transform:
    translation:
      x: -0.007521055638790131
      y: -0.02227814681828022
      z: 0.040249478071928024
    rotation:
      x: -0.06839525699615479
      y: 5.2860706034607574e-08
      z: 3.323382600228797e-07
      w: 0.997658371925354
---
transforms:
- header:
    stamp:
      sec: 111
      nanosec: 376399851
    frame_id: right_hand_thumb_proximal
  child_frame_id: right_hand_thumb_distal
  transform:
    translation:
      x: -0.0015479293651878834
      y: 0.0014999142149463296
      z: 0.03452792763710022
    rotation:
      x: 1.2312618480336823e-07
      y: 0.00030560666345991194
      z: 8.998411260563444e-08
      w: 1.0
---
transforms:
- header:
    stamp:
      sec: 111
      nanosec: 376399851
    frame_id: left_link_3
  child_frame_id: left_link_4
  transform:
    translation:
      x: 0.010000087320804596
      y: 3.0040652632123965e-07
      z: 0.23050566017627716
    rotation:
      x: -0.70710688829422
      y: 1.7648972061579116e-05
      z: 1.7507545635453425e-05
      w: 0.7071066498756409
---
transforms:
- header:
    stamp:
      sec: 111
      nanosec: 376399851
    frame_id: left_hand_thumb_metacarpals_base2
  child_frame_id: left_hand_thumb_metacarpals
  transform:
    translation:
      x: 0.01613018661737442
      y: -0.016305001452565193
      z: 0.006860855966806412
    rotation:
      x: 0.3891480565071106
      y: -0.1624215543270111
      z: 0.8367823958396912
      w: 0.34925374388694763
---
transforms:
- header:
    stamp:
      sec: 111
      nanosec: 376399851
    frame_id: right_hand_index_metacarpals
  child_frame_id: right_hand_index_proximal
  transform:
    translation:
      x: 0.007369918283075094
      y: 1.657194559356867e-07
      z: -3.084515753926098e-07
    rotation:
      x: 7.777674682074576e-08
      y: 0.0014072193298488855
      z: 1.3296632062065328e-07
      w: 0.9999990463256836
---
transforms:
- header:
    stamp:
      sec: 111
      nanosec: 376399851
    frame_id: left_link_5
  child_frame_id: left_link_6
  transform:
    translation:
      x: 8.327747735847879e-08
      y: 4.4296896817286324e-08
      z: 0.09000497311353683
    rotation:
      x: -0.7071068286895752
      y: -0.00026189969503320754
      z: -0.0002618190483190119
      w: 0.7071067094802856
---
transforms:
- header:
    stamp:
      sec: 111
      nanosec: 376399851
    frame_id: left_hand_thumb_proximal
  child_frame_id: left_hand_thumb_distal
  transform:
    translation:
      x: -0.0015548946103081107
      y: 0.001499953563325107
      z: 0.03452751412987709
    rotation:
      x: -2.5004437631537257e-08
      y: 0.0006931049283593893
      z: -8.43168024289298e-08
      w: 0.9999997615814209
---
transforms:
- header:
    stamp:
      sec: 111
      nanosec: 376399851
    frame_id: left_hand_hand_base_link
  child_frame_id: left_hand_index_metacarpals
  transform:
    translation:
      x: -0.007199374493211508
      y: -0.03077816404402256
      z: 0.11944986879825592
    rotation:
      x: 0.0013800367014482617
      y: 6.523033224681285e-09
      z: -1.777853503881488e-05
      w: 0.9999990463256836
---
transforms:
- header:
    stamp:
      sec: 111
      nanosec: 343320804
    frame_id: odom
  child_frame_id: base_footprint
  transform:
    translation:
      x: 0.9620164036750793
      y: 0.5173766613006592
      z: 0.0
    rotation:
      x: 0.0
      y: 0.0
      z: 0.5370574905993919
      w: 0.8435456429803215
---
transforms:
- header:
    stamp:
      sec: 111
      nanosec: 376399851
    frame_id: base_link
  child_frame_id: right_wheel_link
  transform:
    translation:
      x: 0.00974571704864502
      y: -0.12776997685432434
      z: 0.04780018702149391
    rotation:
      x: -0.4946821928024292
      y: -0.5052618980407715
      z: -0.5052618980407715
      w: 0.4946821630001068
---
transforms:
- header:
    stamp:
      sec: 111
      nanosec: 389203401
    frame_id: right_link_2
  child_frame_id: right_link_3
  transform:
    translation:
      x: -0.06947016716003418
      y: 2.1258105675769912e-07
      z: 8.89476226006991e-08
    rotation:
      x: -0.0010079399216920137
      y: 0.7071074843406677
      z: -0.0010078445775434375
      w: 0.7071045637130737
---
transforms:
- header:
    stamp:
      sec: 111
      nanosec: 389203401
    frame_id: right_hand_middle_proximal
  child_frame_id: right_hand_middle_middle
  transform:
    translation:
      x: -0.0041440860368311405
      y: 7.332444511121139e-05
      z: 0.044827211648225784
    rotation:
      x: 8.695833741967363e-08
      y: 0.00687631219625473
      z: -1.099748260458e-05
      w: 0.9999763369560242
---
transforms:
- header:
    stamp:
      sec: 111
      nanosec: 389203401
    frame_id: left_hand_index_middle
  child_frame_id: left_hand_index_distal
  transform:
    translation:
      x: 0.005306923761963844
      y: 9.135381873193182e-08
      z: 0.02659168280661106
    rotation:
      x: -4.743526460515568e-08
      y: -1.5502137102885172e-05
      z: 2.065254847138931e-07
      w: 1.0
---
transforms:
- header:
    stamp:
      sec: 111
      nanosec: 389203401
    frame_id: right_link_3
  child_frame_id: right_link_4
  transform:
    translation:
      x: 0.009998289868235588
      y: 7.92868135590652e-08
      z: -0.23050595819950104
    rotation:
      x: 0.6064801216125488
      y: -0.3635709285736084
      z: 0.36356958746910095
      w: 0.6064777970314026
---
transforms:
- header:
    stamp:
      sec: 111
      nanosec: 389203401
    frame_id: right_hand_middle_middle
  child_frame_id: right_hand_middle_distal
  transform:
    translation:
      x: 0.0036297165788710117
      y: 5.122977381688543e-05
      z: 0.03161187097430229
    rotation:
      x: -1.7133214669229346e-07
      y: -3.607924782045302e-06
      z: 2.557404954472986e-08
      w: 1.0
---
transforms:
- header:
    stamp:
      sec: 111
      nanosec: 389203401
    frame_id: left_hand_hand_base_link
  child_frame_id: left_hand_middle_metacarpals
  transform:
    translation:
      x: -0.007199264597147703
      y: -0.006660702172666788
      z: 0.11945978552103043
    rotation:
      x: 0.0012241583317518234
      y: -1.8534178991558292e-07
      z: -1.576501199451741e-05
      w: 0.9999992847442627
---
transforms:
- header:
    stamp:
      sec: 111
      nanosec: 389203401
    frame_id: right_hand_ring_middle
  child_frame_id: right_hand_ring_distal
  transform:
    translation:
      x: 0.006012754514813423
      y: -8.938720696960445e-08
      z: 0.026440877467393875
    rotation:
      x: -1.0576403042250604e-07
      y: 7.5887583079747856e-06
      z: 2.1048560938652372e-07
      w: 1.0
---
transforms:
- header:
    stamp:
      sec: 111
      nanosec: 389203401
    frame_id: right_hand_thumb_metacarpals_base2
  child_frame_id: right_hand_thumb_metacarpals
  transform:
    translation:
      x: 0.016129720956087112
      y: 0.016304906457662582
      z: 0.006860905326902866
    rotation:
      x: -0.3854144215583801
      y: -0.1608654111623764
      z: -0.838506817817688
      w: 0.3499778211116791
---
transforms:
- header:
    stamp:
      sec: 111
      nanosec: 389203401
    frame_id: right_hand_thumb_metacarpals
  child_frame_id: right_hand_thumb_proximal
  transform:
    translation:
      x: 0.008164279162883759
      y: -0.0014500257093459368
      z: 0.05563356354832649
    rotation:
      x: 8.617278979272669e-08
      y: 0.029169023036956787
      z: 2.553303488639358e-07
      w: 0.9995744824409485
---
transforms:
- header:
    stamp:
      sec: 111
      nanosec: 389203401
    frame_id: right_hand_thumb_proximal
  child_frame_id: right_hand_thumb_distal
  transform:
    translation:
      x: -0.001548001542687416
      y: 0.0015000381972640753
      z: 0.034527767449617386
    rotation:
      x: -1.402161871055796e-07
      y: 0.00030550628434866667
      z: -1.6462178109577508e-07
      w: 1.0
---
transforms:
- header:
    stamp:
      sec: 111
      nanosec: 389203401
    frame_id: left_link_2
  child_frame_id: left_link_3
  transform:
    translation:
      x: -0.06949441134929657
      y: 2.545192856473477e-08
      z: 9.352797292194737e-08
    rotation:
      x: -0.0011595356045290828
      y: 0.7071070671081543
      z: 0.001159521285444498
      w: -0.7071045637130737
---
transforms:
- header:
    stamp:
      sec: 111
      nanosec: 389203401
    frame_id: left_hand_thumb_metacarpals_base2
  child_frame_id: left_hand_thumb_metacarpals
  transform:
    translation:
      x: 0.016130147501826286
      y: -0.016305066645145416
      z: 0.006860777735710144
    rotation:
      x: 0.38914841413497925
      y: -0.16242143511772156
      z: 0.8367822170257568
      w: 0.3492540717124939
---
transforms:
- header:
    stamp:
      sec: 111
      nanosec: 389203401
    frame_id: right_hand_index_metacarpals
  child_frame_id: right_hand_index_proximal
  transform:
    translation:
      x: 0.007369893603026867
      y: 1.4204397302819416e-07
      z: -3.59459562560005e-07
    rotation:
      x: 2.8478385161179176e-07
      y: 0.0014076641527935863
      z: 3.5386637620149486e-08
      w: 0.9999990463256836
---
transforms:
- header:
    stamp:
      sec: 111
      nanosec: 389203401
    frame_id: left_hand_thumb_metacarpals
  child_frame_id: left_hand_thumb_proximal
  transform:
    translation:
      x: 0.008164388127624989
      y: -0.0015500315930694342
      z: 0.055633824318647385
    rotation:
      x: -2.765474675925361e-07
      y: 0.020844224840402603
      z: -1.0600198052657106e-08
      w: 0.9997827410697937
---
transforms:
- header:
    stamp:
      sec: 111
      nanosec: 389203401
    frame_id: left_link_5
  child_frame_id: left_link_6
  transform:
    translation:
      x: -1.8363984111147147e-08
      y: -1.2942575899899111e-08
      z: 0.09000504016876221
    rotation:
      x: -0.7071067094802856
      y: -0.0002616297861095518
      z: -0.000261823704931885
      w: 0.7071068286895752
---
transforms:
- header:
    stamp:
      sec: 111
      nanosec: 389203401
    frame_id: left_link_6
  child_frame_id: left_link_7
  transform:
    translation:
      x: 8.840288501232862e-08
      y: -0.055999431759119034
      z: 6.491652726481334e-08
    rotation:
      x: 0.0003943471529055387
      y: 0.7071077823638916
      z: 0.0003947339137084782
      w: 0.7071055769920349
---
transforms:
- header:
    stamp:
      sec: 111
      nanosec: 389203401
    frame_id: base_link
  child_frame_id: right_wheel_link
  transform:
    translation:
      x: 0.009745673276484013
      y: -0.12777002155780792
      z: 0.04780016839504242
    rotation:
      x: -0.49468231201171875
      y: -0.5052618384361267
      z: -0.5052618384361267
      w: 0.494682252407074
---
transforms:
- header:
    stamp:
      sec: 111
      nanosec: 389203401
    frame_id: chest_link
  child_frame_id: right_link_1
  transform:
    translation:
      x: -0.10298740863800049
      y: -1.5425946742197993e-07
      z: 0.2980000078678131
    rotation:
      x: -0.004370631650090218
      y: 0.707094669342041
      z: 0.004370426759123802
      w: -0.7070920467376709
---
transforms:
- header:
    stamp:
      sec: 111
      nanosec: 389203401
    frame_id: right_hand_middle_metacarpals
  child_frame_id: right_hand_middle_proximal
  transform:
    translation:
      x: 0.007369797211140394
      y: -1.7910817007305013e-07
      z: -4.3288628148729913e-07
    rotation:
      x: -1.1803911093011266e-07
      y: 0.003623503027483821
      z: -5.930062798142899e-06
      w: 0.9999934434890747
---
transforms:
- header:
    stamp:
      sec: 111
      nanosec: 389203401
    frame_id: right_hand_middle_proximal
  child_frame_id: right_hand_middle_middle
  transform:
    translation:
      x: -0.0041440860368311405
      y: 7.332444511121139e-05
      z: 0.044827211648225784
    rotation:
      x: 8.695833741967363e-08
      y: 0.00687631219625473
      z: -1.099748260458e-05
      w: 0.9999763369560242
---
transforms:
- header:
    stamp:
      sec: 111
      nanosec: 389203401
    frame_id: right_link_2
  child_frame_id: right_link_3
  transform:
    translation:
      x: -0.06947016716003418
      y: 2.1258105675769912e-07
      z: 8.89476226006991e-08
    rotation:
      x: -0.0010079399216920137
      y: 0.7071074843406677
      z: -0.0010078445775434375
      w: 0.7071045637130737
---
transforms:
- header:
    stamp:
      sec: 111
      nanosec: 389203401
    frame_id: right_hand_middle_middle
  child_frame_id: right_hand_middle_distal
  transform:
    translation:
      x: 0.0036297165788710117
      y: 5.122977381688543e-05
      z: 0.03161187097430229
    rotation:
      x: -1.7133214669229346e-07
      y: -3.607924782045302e-06
      z: 2.557404954472986e-08
      w: 1.0
---
transforms:
- header:
    stamp:
      sec: 111
      nanosec: 389203401
    frame_id: left_hand_hand_base_link
  child_frame_id: left_hand_middle_metacarpals
  transform:
    translation:
      x: -0.007199264597147703
      y: -0.006660702172666788
      z: 0.11945978552103043
    rotation:
      x: 0.0012241583317518234
      y: -1.8534178991558292e-07
      z: -1.576501199451741e-05
      w: 0.9999992847442627
---
transforms:
- header:
    stamp:
      sec: 111
      nanosec: 409909927
    frame_id: right_hand_pinky_proximal
  child_frame_id: right_hand_pinky_middle
  transform:
    translation:
      x: -0.003929391503334045
      y: 1.6074706365998281e-07
      z: 0.03983014449477196
    rotation:
      x: -1.8052448069738602e-07
      y: 0.005571831949055195
      z: 1.173862926862057e-07
      w: 0.9999845623970032
---
transforms:
- header:
    stamp:
      sec: 111
      nanosec: 409909927
    frame_id: right_hand_pinky_middle
  child_frame_id: right_hand_pinky_distal
  transform:
    translation:
      x: 0.006012719590216875
      y: -4.083333848825532e-08
      z: 0.026440903544425964
    rotation:
      x: 3.6435572781101655e-08
      y: 0.0005775658646598458
      z: -4.089877592150515e-08
      w: 0.9999998807907104
---
transforms:
- header:
    stamp:
      sec: 111
      nanosec: 409909927
    frame_id: right_hand_hand_base_link
  child_frame_id: right_hand_ring_proximal
  transform:
    translation:
      x: 0.0001601129479240626
      y: -0.013573060743510723
      z: 0.11972016841173172
    rotation:
      x: -2.149020588149142e-07
      y: 0.0035989147145301104
      z: 2.1475140954407834e-07
      w: 0.9999935030937195
---
transforms:
- header:
    stamp:
      sec: 111
      nanosec: 409909927
    frame_id: left_hand_pinky_proximal
  child_frame_id: left_hand_pinky_middle
  transform:
    translation:
      x: -0.003929241560399532
      y: -1.6691706150595564e-07
      z: 0.03982969745993614
    rotation:
      x: 1.9341641177561542e-07
      y: 0.015945548191666603
      z: -6.492300030913611e-08
      w: 0.9998729228973389
---
transforms:
- header:
    stamp:
      sec: 111
      nanosec: 409909927
    frame_id: neck_link
  child_frame_id: head_link
  transform:
    translation:
      x: -1.4062626974009618e-07
      y: 2.2597905768861892e-08
      z: 0.07283467799425125
    rotation:
      x: -0.00038716528797522187
      y: 0.7071080207824707
      z: -0.0003872048109769821
      w: 0.7071053385734558
---
transforms:
- header:
    stamp:
      sec: 111
      nanosec: 409909927
    frame_id: base_link
  child_frame_id: left_wheel_link
  transform:
    translation:
      x: 0.010269067250192165
      y: 0.1267300248146057
      z: 0.04779998958110809
    rotation:
      x: -0.495156854391098
      y: -0.5047985911369324
      z: -0.5058139562606812
      w: 0.49411576986312866
---
transforms:
- header:
    stamp:
      sec: 111
      nanosec: 409909927
    frame_id: body_base_link
  child_frame_id: waist_link_1
  transform:
    translation:
      x: -9.112813472711423e-07
      y: 6.424038474506233e-06
      z: -4.285533577785827e-05
    rotation:
      x: 0.5009640455245972
      y: 0.49903467297554016
      z: 0.5000858306884766
      w: -0.49991363286972046
---
transforms:
- header:
    stamp:
      sec: 111
      nanosec: 409909927
    frame_id: waist_link_1
  child_frame_id: waist_link_2
  transform:
    translation:
      x: 0.2900000214576721
      y: 1.1076977113333442e-09
      z: -8.22566335045849e-08
    rotation:
      x: 0.0020077943336218596
      y: -0.0004459488845895976
      z: 0.21682949364185333
      w: 0.9762073159217834
---
transforms:
- header:
    stamp:
      sec: 111
      nanosec: 409909927
    frame_id: right_hand_thumb_metacarpals_base1
  child_frame_id: right_hand_thumb_metacarpals_base2
  transform:
    translation:
      x: 0.03507062792778015
      y: 0.003301344346255064
      z: -6.253029027902812e-08
    rotation:
      x: 7.515418332104673e-08
      y: 6.620990689043538e-08
      z: 0.00023328381939791143
      w: 1.0
---
transforms:
- header:
    stamp:
      sec: 111
      nanosec: 409909927
    frame_id: waist_link_2
  child_frame_id: waist_link_3
  transform:
    translation:
