transforms:
- header:
    stamp:
      sec: 78
      nanosec: 582582745
    frame_id: right_hand_thumb_proximal
  child_frame_id: right_hand_thumb_distal
  transform:
    translation:
      x: -0.10073676705360413
      y: -0.17356112599372864
      z: 0.14211146533489227
    rotation:
      x: -0.49728384613990784
      y: -0.0032942171674221754
      z: -0.4597606658935547
      w: 0.7357432246208191
---
transforms:
- header:
    stamp:
      sec: 78
      nanosec: 582582745
    frame_id: left_hand_thumb_metacarpals
  child_frame_id: left_hand_thumb_proximal
  transform:
    translation:
      x: 0.008164575323462486
      y: -0.0015494916588068008
      z: 0.05563364177942276
    rotation:
      x: 1.0550885320981251e-07
      y: 0.02089349366724491
      z: -4.778318896114797e-08
      w: 0.9997817277908325
---
transforms:
- header:
    stamp:
      sec: 78
      nanosec: 582582745
    frame_id: base_link
  child_frame_id: left_wheel_link
  transform:
    translation:
      x: 0.01026905421167612
      y: 0.12673062086105347
      z: 0.04780001938343048
    rotation:
      x: -0.7064610719680786
      y: -0.030243925750255585
      z: -0.031696658581495285
      w: 0.7063947319984436
---
transforms:
- header:
    stamp:
      sec: 78
      nanosec: 582582745
    frame_id: right_hand_index_proximal
  child_frame_id: right_hand_index_middle
  transform:
    translation:
      x: 0.40348681807518005
      y: -8.269446698250249e-05
      z: 0.03950110077857971
    rotation:
      x: -0.015250671654939651
      y: 3.3418884413549677e-05
      z: 0.9998834133148193
      w: -0.0007923158700577915
---
transforms:
- header:
    stamp:
      sec: 78
      nanosec: 582582745
    frame_id: left_hand_index_metacarpals
  child_frame_id: left_hand_index_proximal
  transform:
    translation:
      x: 0.007368633523583412
      y: -8.022754371950214e-08
      z: -9.539553866488859e-05
    rotation:
      x: 1.175988089130442e-07
      y: 0.000278217630693689
      z: -2.6665299301953382e-08
      w: 1.0
---
transforms:
- header:
    stamp:
      sec: 78
      nanosec: 603002728
    frame_id: left_hand_index_proximal
  child_frame_id: left_hand_index_middle
  transform:
    translation:
      x: -0.003053426742553711
      y: -8.290252395681819e-08
      z: 0.039906520396471024
    rotation:
      x: 9.307263582059022e-08
      y: 0.016807325184345245
      z: 1.684760775333416e-09
      w: 0.9998587965965271
---
transforms:
- header:
    stamp:
      sec: 78
      nanosec: 603002728
    frame_id: right_hand_middle_metacarpals
  child_frame_id: right_hand_middle_proximal
  transform:
    translation:
      x: 0.4077683091163635
      y: -9.333793423138559e-05
      z: -0.0007320582517422736
    rotation:
      x: -0.0022302691359072924
      y: 7.066014222800732e-05
      z: 0.9999971985816956
      w: -0.000784370000474155
---
transforms:
- header:
    stamp:
      sec: 78
      nanosec: 576359304
    frame_id: odom
  child_frame_id: base_footprint
  transform:
    translation:
      x: -0.007388600613921881
      y: 6.0433954786276445e-05
      z: 0.0
    rotation:
      x: 0.0
      y: 0.0
      z: -0.006467190192545571
      w: 0.9999790875068405
---
transforms:
- header:
    stamp:
      sec: 78
      nanosec: 603002728
    frame_id: right_hand_middle_middle
  child_frame_id: right_hand_middle_distal
  transform:
    translation:
      x: 0.4025294780731201
      y: -0.00020763442444149405
      z: 0.04376790300011635
    rotation:
      x: -0.030520662665367126
      y: 7.333017856581137e-05
      z: 0.9995338320732117
      w: -0.0007646010490134358
---
transforms:
- header:
    stamp:
      sec: 78
      nanosec: 603002728
    frame_id: right_link_5
  child_frame_id: right_link_6
  transform:
    translation:
      x: 1.0693408825090955e-07
      y: 6.823503895247995e-07
      z: -0.09000501036643982
    rotation:
      x: 0.7071075439453125
      y: 0.0007781863096170127
      z: -0.000778394634835422
      w: 0.707105278968811
---
transforms:
- header:
    stamp:
      sec: 78
      nanosec: 603002728
    frame_id: chest_link
  child_frame_id: neck_link
  transform:
    translation:
      x: -4.274102991530526e-07
      y: 0.01549997553229332
      z: 0.35670146346092224
    rotation:
      x: 2.5021234861810626e-08
      y: -2.7320943729591818e-08
      z: -8.412666647927836e-05
      w: 1.0
---
transforms:
- header:
    stamp:
      sec: 78
      nanosec: 603002728
    frame_id: right_hand_pinky_middle
  child_frame_id: right_hand_pinky_distal
  transform:
    translation:
      x: 0.4007107615470886
      y: -0.00011736374290194362
      z: 0.037151724100112915
    rotation:
      x: -0.027159182354807854
      y: -5.289226828608662e-05
      z: 0.999630868434906
      w: -0.0007757030543871224
---
transforms:
- header:
    stamp:
      sec: 78
      nanosec: 603002728
    frame_id: right_hand_hand_base_link
  child_frame_id: right_hand_ring_proximal
  transform:
    translation:
      x: 0.400549054145813
      y: 0.013466187752783298
      z: 0.1190943494439125
    rotation:
      x: 0.00021662533981725574
      y: -5.4083982831798494e-05
      z: 0.9999997615814209
      w: -0.0007755415281280875
---
transforms:
- header:
    stamp:
      sec: 78
      nanosec: 603002728
    frame_id: body_base_link
  child_frame_id: waist_link_1
  transform:
    translation:
      x: -9.114042427427194e-07
      y: 7.6178534982318524e-06
      z: -4.285622708266601e-05
    rotation:
      x: 0.5008888244628906
      y: 0.49911025166511536
      z: 0.5001612305641174
      w: -0.49983805418014526
---
transforms:
- header:
    stamp:
      sec: 78
      nanosec: 603002728
    frame_id: waist_link_1
  child_frame_id: waist_link_2
  transform:
    translation:
      x: 0.2900000810623169
      y: -1.47259271443545e-08
      z: -9.149517268269847e-07
    rotation:
      x: 0.002007877454161644
      y: -0.00044557114597409964
      z: 0.21666143834590912
      w: 0.9762446284294128
---
transforms:
- header:
    stamp:
      sec: 78
      nanosec: 603002728
    frame_id: waist_link_2
  child_frame_id: waist_link_3
  transform:
    translation:
      x: 0.33000001311302185
      y: 5.054181073660402e-08
      z: 4.4981482005823636e-07
    rotation:
      x: 0.002007859293371439
      y: 0.0004454425070434809
      z: -0.9762539267539978
      w: -0.21661977469921112
---
transforms:
- header:
    stamp:
      sec: 78
      nanosec: 603002728
    frame_id: right_hand_thumb_metacarpals_base1
  child_frame_id: right_hand_thumb_metacarpals_base2
  transform:
    translation:
      x: 0.3804680109024048
      y: -0.0033658514730632305
      z: -0.0005922546260990202
    rotation:
      x: 0.0016210849862545729
      y: -0.00667251693084836
      z: 0.999975860118866
      w: -0.0011075326474383473
---
transforms:
- header:
    stamp:
      sec: 78
      nanosec: 603002728
    frame_id: right_hand_thumb_metacarpals_base2
  child_frame_id: right_hand_thumb_metacarpals
  transform:
    translation:
      x: 0.3296729624271393
      y: 0.006481063552200794
      z: 0.006102364975959063
    rotation:
      x: 0.18234728276729584
      y: -0.38350677490234375
      z: 0.3762987554073334
      w: 0.8234508037567139
---
transforms:
- header:
    stamp:
      sec: 78
      nanosec: 603002728
    frame_id: right_hand_thumb_metacarpals
  child_frame_id: right_hand_thumb_proximal
  transform:
    translation:
      x: -0.10292460024356842
      y: -0.20165804028511047
      z: 0.18686722218990326
    rotation:
      x: -0.506888747215271
      y: 0.011903507634997368
      z: -0.44914859533309937
      w: 0.7356545329093933
---
transforms:
- header:
    stamp:
      sec: 78
      nanosec: 603002728
    frame_id: left_hand_thumb_metacarpals
  child_frame_id: left_hand_thumb_proximal
  transform:
    translation:
      x: 0.008164329454302788
      y: -0.001549455919303
      z: 0.05563344433903694
    rotation:
      x: -3.794290535097389e-07
      y: 0.020893556997179985
      z: -1.4720802710144198e-07
      w: 0.9997817873954773
---
transforms:
- header:
    stamp:
      sec: 78
      nanosec: 603002728
    frame_id: right_hand_hand_base_link
  child_frame_id: right_hand_index_metacarpals
  transform:
    translation:
      x: 0.4079761803150177
      y: -0.030873741954565048
      z: 0.11869953572750092
    rotation:
      x: 0.001741817337460816
      y: -0.0016547581180930138
      z: 0.9999969005584717
      w: -0.0007730920915491879
---
transforms:
- header:
    stamp:
      sec: 78
      nanosec: 603002728
    frame_id: right_hand_index_metacarpals
  child_frame_id: right_hand_index_proximal
  transform:
    translation:
      x: 0.40780648589134216
      y: -9.180073539027944e-05
      z: -0.000724641140550375
    rotation:
      x: 0.00023671978851780295
      y: 4.431524212122895e-05
      z: 0.9999996423721313
      w: -0.0007919202325865626
---
transforms:
- header:
    stamp:
      sec: 78
      nanosec: 603002728
    frame_id: left_link_6
  child_frame_id: left_link_7
  transform:
    translation:
      x: -4.733414726842966e-08
      y: -0.055999480187892914
      z: -1.287372128899733e-06
    rotation:
      x: 0.0005278336466290057
      y: 0.7071080803871155
      z: 0.0005279229371808469
      w: 0.7071051597595215
---
transforms:
- header:
    stamp:
      sec: 78
      nanosec: 596359304
    frame_id: odom
  child_frame_id: base_footprint
  transform:
    translation:
      x: -0.007388600613921881
      y: 6.0433954786276445e-05
      z: 0.0
    rotation:
      x: 0.0
      y: 0.0
      z: -0.006467145024345295
      w: 0.999979087798957
---
transforms:
- header:
    stamp:
      sec: 78
      nanosec: 625211139
    frame_id: left_hand_index_middle
  child_frame_id: left_hand_index_distal
  transform:
    translation:
      x: 0.005307991523295641
      y: 1.567025265103439e-07
      z: 0.02659147046506405
    rotation:
      x: 4.9363016785264335e-08
      y: -5.906774731556652e-06
      z: -4.12305176666905e-08
      w: 1.0
---
transforms:
- header:
    stamp:
      sec: 78
      nanosec: 625211139
    frame_id: left_hand_hand_base_link
  child_frame_id: left_hand_middle_metacarpals
  transform:
    translation:
      x: -0.007201428525149822
      y: -0.006660643965005875
      z: 0.11946001648902893
    rotation:
      x: 0.0015222876099869609
      y: 1.0148652052066609e-07
      z: -1.961133602890186e-05
      w: 0.999998927116394
---
transforms:
- header:
    stamp:
      sec: 78
      nanosec: 625211139
    frame_id: right_hand_middle_metacarpals
  child_frame_id: right_hand_middle_proximal
  transform:
    translation:
      x: 0.4077683091163635
      y: -9.333793423138559e-05
      z: -0.0007320582517422736
    rotation:
      x: -0.0022302691359072924
      y: 7.066014222800732e-05
      z: 0.9999971985816956
      w: -0.000784370000474155
---
transforms:
- header:
    stamp:
      sec: 78
      nanosec: 625211139
    frame_id: right_link_2
  child_frame_id: right_link_3
  transform:
    translation:
      x: -0.06947024166584015
      y: 1.0711689810705138e-06
      z: 9.474902640249638e-08
    rotation:
      x: -0.0001744614273775369
      y: 0.7071080803871155
      z: -0.00017441963427700102
      w: 0.7071055173873901
---
transforms:
- header:
    stamp:
      sec: 78
      nanosec: 625211139
    frame_id: right_link_4
  child_frame_id: right_link_5
  transform:
    translation:
      x: -0.010000023059546947
      y: -0.12899497151374817
      z: -6.610039804400003e-07
    rotation:
      x: -0.7071066498756409
      y: -0.00039146890048868954
      z: -0.0003914359549526125
      w: 0.7071066498756409
---
transforms:
- header:
    stamp:
      sec: 78
      nanosec: 625211139
    frame_id: left_hand_hand_base_link
  child_frame_id: left_hand_pinky_proximal
  transform:
    translation:
      x: 0.00015885671018622816
      y: 0.03362993896007538
      z: 0.11271943897008896
    rotation:
      x: 7.246956812423377e-08
      y: 0.0002662170445546508
      z: -2.4693861178093357e-07
      w: 1.0
---
transforms:
- header:
    stamp:
      sec: 78
      nanosec: 625211139
    frame_id: right_link_6
  child_frame_id: right_link_7
  transform:
    translation:
      x: 1.5764040028898307e-07
      y: -0.055999428033828735
      z: -1.4921799902367638e-06
    rotation:
      x: 0.0006684262189082801
      y: 0.7071076035499573
      z: -0.0006685957778245211
      w: -0.7071053385734558
---
transforms:
- header:
    stamp:
      sec: 78
      nanosec: 625211139
    frame_id: right_hand_hand_base_link
  child_frame_id: right_hand_ring_proximal
  transform:
    translation:
      x: 0.40054869651794434
      y: 0.013466252945363522
      z: 0.11909528821706772
    rotation:
      x: 0.00021704770915675908
      y: -5.320192576618865e-05
      z: 0.9999997019767761
      w: -0.0007753287791274488
---
transforms:
- header:
    stamp:
      sec: 78
      nanosec: 625211139
    frame_id: right_hand_ring_proximal
  child_frame_id: right_hand_ring_middle
  transform:
    translation:
      x: 0.4043162763118744
      y: -0.0001048115809680894
      z: 0.03942224010825157
    rotation:
      x: -0.012431093491613865
      y: -6.275586201809347e-05
      z: 0.9999224543571472
      w: -0.0007750202203169465
---
transforms:
- header:
    stamp:
      sec: 78
      nanosec: 625211139
    frame_id: left_hand_ring_proximal
  child_frame_id: left_hand_ring_middle
  transform:
    translation:
      x: -0.003930701408535242
      y: 1.2236368862605929e-10
      z: 0.03982912376523018
    rotation:
      x: 1.7141198327408347e-07
      y: 0.013616072945296764
      z: -1.0921489490556269e-07
      w: 0.999907374382019
---
transforms:
- header:
    stamp:
      sec: 78
      nanosec: 625211139
    frame_id: waist_link_1
  child_frame_id: waist_link_2
  transform:
    translation:
      x: 0.2900000810623169
      y: 8.886430435950388e-08
      z: -8.810740155240637e-07
    rotation:
      x: 0.0020079482346773148
      y: -0.0004455274320207536
      z: 0.21666140854358673
      w: 0.9762446284294128
---
transforms:
- header:
    stamp:
      sec: 78
      nanosec: 625211139
    frame_id: right_hand_thumb_metacarpals_base1
  child_frame_id: right_hand_thumb_metacarpals_base2
  transform:
    translation:
      x: 0.3804677426815033
      y: -0.0033657709136605263
      z: -0.0005913958302699029
    rotation:
      x: 0.0016211813781410456
      y: -0.006673718336969614
      z: 0.9999758005142212
      w: -0.001107456162571907
---
transforms:
- header:
    stamp:
      sec: 78
      nanosec: 625211139
    frame_id: waist_link_3
  child_frame_id: chest_link
  transform:
    translation:
      x: 0.0
      y: 0.0
      z: 0.0
    rotation:
      x: -2.2688525405101245e-06
      y: 0.7071080803871155
      z: 2.1946675587969366e-06
      w: -0.7071055769920349
---
transforms:
- header:
    stamp:
      sec: 78
      nanosec: 625211139
    frame_id: base_link
  child_frame_id: left_wheel_link
  transform:
    translation:
      x: 0.010268918238580227
      y: 0.12673063576221466
      z: 0.04780000448226929
    rotation:
      x: -0.7064610719680786
      y: -0.03024364821612835
      z: -0.0316963754594326
      w: 0.7063947916030884
---
transforms:
- header:
    stamp:
      sec: 78
      nanosec: 625211139
    frame_id: left_link_2
  child_frame_id: left_link_3
  transform:
    translation:
      x: -0.06949467957019806
      y: 9.32014984300622e-07
      z: 5.215560250348972e-08
    rotation:
      x: -0.00036503057344816625
      y: 0.7071080207824707
      z: 0.00036501616705209017
      w: -0.7071053981781006
---
transforms:
- header:
    stamp:
      sec: 78
      nanosec: 625211139
    frame_id: left_link_3
  child_frame_id: left_link_4
  transform:
    translation:
      x: 0.009999983943998814
      y: 3.6082795418224123e-07
      z: 0.23050513863563538
    rotation:
      x: -0.7071067690849304
      y: 3.7802506085427012e-06
      z: 3.823708539130166e-06
      w: 0.70710688829422
---
transforms:
- header:
    stamp:
      sec: 78
      nanosec: 625211139
    frame_id: left_hand_hand_base_link
  child_frame_id: left_hand_index_metacarpals
  transform:
    translation:
      x: -0.007200975902378559
      y: -0.030777983367443085
      z: 0.11944978684186935
    rotation:
      x: 0.0017002969980239868
      y: -5.3405269540007794e-08
      z: -2.1903140805079602e-05
      w: 0.9999986290931702
---
transforms:
- header:
    stamp:
      sec: 78
      nanosec: 646974730
    frame_id: left_link_5
  child_frame_id: left_link_6
  transform:
    translation:
      x: 1.5296808442144538e-07
      y: -5.184694984450289e-08
      z: 0.09000470489263535
    rotation:
      x: -0.707106351852417
      y: -0.0007707276963628829
      z: -0.0007708481862209737
      w: 0.7071064710617065
---
transforms:
- header:
    stamp:
      sec: 78
      nanosec: 646974730
    frame_id: left_link_6
  child_frame_id: left_link_7
  transform:
    translation:
      x: -3.418151095502253e-08
      y: -0.05599955469369888
      z: -1.2775449249602389e-06
    rotation:
      x: 0.0005278252647258341
      y: 0.7071077823638916
      z: 0.0005280339973978698
      w: 0.7071054577827454
---
transforms:
- header:
    stamp:
      sec: 78
      nanosec: 646974730
    frame_id: right_hand_hand_base_link
  child_frame_id: right_hand_middle_metacarpals
  transform:
    translation:
      x: 0.4079374372959137
      y: -0.006756424438208342
      z: 0.11870231479406357
    rotation:
      x: 0.001741611398756504
      y: -0.0014481627149507403
      z: 0.9999971985816956
      w: -0.0007731997757218778
---
transforms:
- header:
    stamp:
      sec: 78
      nanosec: 646974730
    frame_id: chest_link
  child_frame_id: right_link_1
  transform:
    translation:
      x: -0.10298848152160645
      y: 9.31630168565789e-08
      z: 0.29799994826316833
    rotation:
      x: 0.00040229770820587873
      y: 0.7071080803871155
      z: -0.0004023900837637484
      w: -0.7071053981781006
---
transforms:
- header:
    stamp:
      sec: 78
      nanosec: 646974730
    frame_id: left_hand_index_middle
  child_frame_id: left_hand_index_distal
  transform:
    translation:
      x: 0.005307913292199373
      y: 3.177111551622147e-08
      z: 0.02659195475280285
    rotation:
      x: 9.391489896870553e-08
      y: -6.027374183759093e-06
      z: 8.62453859440393e-08
      w: 1.0
---
transforms:
- header:
    stamp:
      sec: 78
      nanosec: 646974730
    frame_id: right_hand_middle_metacarpals
  child_frame_id: right_hand_middle_proximal
  transform:
    translation:
      x: 0.4077683091163635
      y: -9.357614908367395e-05
      z: -0.0007318005664274096
    rotation:
      x: -0.0022298686672002077
      y: 7.084960088832304e-05
      z: 0.9999971985816956
      w: -0.0007844109204597771
---
transforms:
- header:
    stamp:
      sec: 78
      nanosec: 646974730
    frame_id: left_hand_middle_metacarpals
  child_frame_id: left_hand_middle_proximal
  transform:
    translation:
      x: 0.007370536681264639
      y: -1.0912710024513217e-07
      z: -9.539500751998276e-05
    rotation:
      x: 1.8162856463277421e-07
      y: 0.0024226359091699123
      z: 8.169723741957569e-08
      w: 0.999997079372406
---
transforms:
- header:
    stamp:
      sec: 78
      nanosec: 646974730
    frame_id: base_link
  child_frame_id: right_wheel_link
  transform:
    translation:
      x: 0.009745708666741848
      y: -0.1277700960636139
      z: 0.04780018702149391
    rotation:
      x: -0.7064279913902283
      y: -0.030977318063378334
      z: -0.030977316200733185
      w: 0.7064279913902283
---
transforms:
- header:
    stamp:
      sec: 78
      nanosec: 646974730
    frame_id: right_link_6
  child_frame_id: right_link_7
  transform:
    translation:
      x: -3.418038829750003e-08
      y: -0.05599937215447426
      z: -1.483343339714338e-06
    rotation:
      x: 0.000668209686409682
      y: 0.707107663154602
      z: -0.0006686425767838955
      w: -0.7071053385734558
---
transforms:
- header:
    stamp:
      sec: 78
      nanosec: 646974730
    frame_id: left_hand_pinky_proximal
  child_frame_id: left_hand_pinky_middle
  transform:
    translation:
      x: -0.003930360544472933
      y: 2.4264672049412184e-08
      z: 0.03982969745993614
    rotation:
      x: -4.742511094946167e-08
      y: 0.014068134129047394
      z: -1.1894147178281855e-07
      w: 0.9999010562896729
---
transforms:
- header:
    stamp:
      sec: 78
      nanosec: 646974730
    frame_id: body_base_link
  child_frame_id: waist_link_1
  transform:
    translation:
      x: -9.114050953940023e-07
      y: 7.617855771968607e-06
      z: -4.28562234446872e-05
    rotation:
      x: 0.5008886456489563
      y: 0.49911051988601685
      z: 0.5001614093780518
      w: -0.49983787536621094
---
transforms:
- header:
    stamp:
      sec: 78
      nanosec: 646974730
    frame_id: waist_link_1
  child_frame_id: waist_link_2
  transform:
    translation:
      x: 0.29000023007392883
      y: 8.199949519394067e-08
      z: -1.0030522616943927e-06
    rotation:
      x: 0.0020079207606613636
      y: -0.0004455650632735342
      z: 0.2166614681482315
      w: 0.9762446880340576
---
transforms:
- header:
    stamp:
      sec: 78
      nanosec: 646974730
    frame_id: right_hand_thumb_metacarpals_base1
  child_frame_id: right_hand_thumb_metacarpals_base2
  transform:
    translation:
      x: 0.38046786189079285
      y: -0.003366626100614667
      z: -0.0005920014227740467
    rotation:
      x: 0.0016211618203669786
      y: -0.006672556046396494
      z: 0.9999758005142212
      w: -0.0011074959766119719
---
transforms:
- header:
    stamp:
      sec: 78
      nanosec: 646974730
    frame_id: waist_link_3
  child_frame_id: chest_link
  transform:
    translation:
      x: -7.050232397887157e-09
      y: 1.7493505310994806e-08
      z: 1.9072560917265946e-06
    rotation:
      x: -2.032316615441232e-06
      y: 0.7071080207824707
      z: 2.0330767256382387e-06
      w: -0.7071055769920349
---
transforms:
- header:
    stamp:
      sec: 78
      nanosec: 646974730
    frame_id: right_hand_thumb_metacarpals_base2
  child_frame_id: right_hand_thumb_metacarpals
  transform:
    translation:
      x: 0.32967281341552734
      y: 0.006480533629655838
      z: 0.006102810148149729
    rotation:
      x: 0.18234679102897644
      y: -0.38350674510002136
      z: 0.3762988746166229
      w: 0.8234509229660034
---
transforms:
- header:
    stamp:
      sec: 78
      nanosec: 646974730
    frame_id: right_hand_thumb_proximal
  child_frame_id: right_hand_thumb_distal
  transform:
    translation:
      x: -0.1007378026843071
      y: -0.17356236279010773
      z: 0.1421123892068863
    rotation:
      x: -0.4972835183143616
      y: -0.0032932560425251722
      z: -0.4597604274749756
      w: 0.7357437014579773
---
transforms:
- header:
    stamp:
      sec: 78
      nanosec: 646974730
    frame_id: left_link_2
  child_frame_id: left_link_3
  transform:
    translation:
      x: -0.06949467957019806
      y: 9.330427133136254e-07
      z: 3.593014952230078e-08
    rotation:
      x: -0.0003647917474154383
      y: 0.7071081399917603
      z: 0.0003648011770565063
      w: -0.7071053385734558
---
transforms:
- header:
    stamp:
      sec: 78
      nanosec: 646974730
    frame_id: right_hand_index_metacarpals
  child_frame_id: right_hand_index_proximal
  transform:
    translation:
      x: 0.407806396484375
      y: -9.237764606950805e-05
      z: -0.0007244127336889505
    rotation:
      x: 0.00023725704522803426
      y: 4.449478001333773e-05
      z: 0.9999996423721313
      w: -0.0007919187773950398
---
transforms:
- header:
    stamp:
      sec: 78
      nanosec: 646974730
    frame_id: right_hand_index_proximal
  child_frame_id: right_hand_index_middle
  transform:
    translation:
      x: 0.4034886360168457
      y: -8.381861698580906e-05
      z: 0.03950093686580658
    rotation:
      x: -0.015251001343131065
      y: 3.2564083085162565e-05
      z: 0.9998833537101746
      w: -0.0007924704113975167
---
transforms:
- header:
    stamp:
      sec: 78
      nanosec: 667353295
    frame_id: left_link_6
  child_frame_id: left_link_7
  transform:
    translation:
      x: 4.3609389877019566e-08
      y: -0.055999621748924255
      z: -1.3410133306024363e-06
    rotation:
      x: 0.0005272382404655218
      y: 0.7071077823638916
      z: 0.0005271958652883768
      w: 0.7071054577827454
---
transforms:
- header:
    stamp:
      sec: 78
      nanosec: 667353295
    frame_id: chest_link
  child_frame_id: right_link_1
  transform:
    translation:
      x: -0.10298705101013184
      y: 1.7139316810244054e-07
      z: 0.2979997396469116
    rotation:
      x: 0.0003959427704103291
      y: 0.7071080207824707
      z: -0.00039601686876267195
      w: -0.707105278968811
---
transforms:
- header:
    stamp:
      sec: 78
      nanosec: 667353295
    frame_id: base_link
  child_frame_id: right_wheel_link
  transform:
    translation:
      x: 0.009745711460709572
      y: -0.12777014076709747
      z: 0.04780019074678421
    rotation:
      x: -0.7064266800880432
      y: -0.03100699745118618
      z: -0.03100699931383133
      w: 0.7064266800880432
---
transforms:
- header:
    stamp:
      sec: 78
      nanosec: 667353295
    frame_id: right_hand_middle_proximal
  child_frame_id: right_hand_middle_middle
  transform:
    translation:
      x: 0.40412482619285583
      y: -0.00015796380466781557
      z: 0.04617266729474068
    rotation:
      x: -0.016928480938076973
      y: 6.426588515751064e-05
      z: 0.9998564720153809
      w: -0.0007540792576037347
---
transforms:
- header:
    stamp:
      sec: 78
      nanosec: 667353295
    frame_id: right_link_3
  child_frame_id: right_link_4
  transform:
    translation:
      x: 0.00999833270907402
      y: -5.818930617351725e-07
      z: -0.23050646483898163
    rotation:
      x: 0.7071081399917603
      y: -4.591183369484497e-06
      z: 4.389197329146555e-06
      w: 0.7071054577827454
---
transforms:
- header:
    stamp:
      sec: 78
      nanosec: 667353295
    frame_id: right_hand_hand_base_link
  child_frame_id: right_hand_pinky_proximal
  transform:
    translation:
      x: 0.4004937708377838
      y: 0.033519260585308075
      z: 0.11209388077259064
    rotation:
      x: 0.0011216707061976194
      y: -5.217337456997484e-05
      z: 0.9999991655349731
      w: -0.0007644305587746203
---
transforms:
- header:
    stamp:
      sec: 78
      nanosec: 667353295
    frame_id: right_link_4
  child_frame_id: right_link_5
  transform:
    translation:
      x: -0.00999999325722456
      y: -0.12899476289749146
      z: -9.570620704835164e-07
    rotation:
      x: -0.7071065306663513
      y: -0.0003889520594384521
      z: -0.00038889647112227976
      w: 0.7071067690849304
---
transforms:
- header:
    stamp:
      sec: 78
      nanosec: 667353295
    frame_id: right_hand_pinky_middle
  child_frame_id: right_hand_pinky_distal
  transform:
    translation:
      x: 0.40071022510528564
      y: -0.00012163487554062158
      z: 0.0371585488319397
    rotation:
      x: -0.02715529128909111
      y: -5.172741657588631e-05
      z: 0.9996309280395508
      w: -0.0007648353930562735
---
transforms:
- header:
    stamp:
      sec: 78
      nanosec: 667353295
    frame_id: right_link_6
  child_frame_id: right_link_7
  transform:
    translation:
      x: 1.7325793066902406e-07
      y: -0.05599940940737724
      z: 3.554060015176219e-07
    rotation:
      x: 0.0006685757543891668
      y: 0.7071078419685364
      z: -0.0006687283748760819
      w: -0.7071051001548767
---
transforms:
- header:
    stamp:
      sec: 78
      nanosec: 667353295
    frame_id: left_hand_middle_middle
  child_frame_id: left_hand_middle_distal
  transform:
    translation:
      x: 0.003629544051364064
      y: -7.055795236965423e-08
      z: 0.03161162510514259
    rotation:
      x: 8.255965155967715e-08
      y: -1.6906130895222304e-06
      z: -8.302358622813699e-08
      w: 1.0
---
transforms:
- header:
    stamp:
      sec: 78
      nanosec: 667353295
    frame_id: left_hand_hand_base_link
  child_frame_id: left_hand_pinky_proximal
  transform:
    translation:
      x: 0.000158907932927832
      y: 0.03362996131181717
      z: 0.11271947622299194
    rotation:
      x: -2.257789333270921e-08
      y: 0.0002815736224874854
      z: -9.651757437723063e-08
      w: 1.0
---
transforms:
- header:
    stamp:
      sec: 78
      nanosec: 667353295
    frame_id: left_hand_pinky_proximal
  child_frame_id: left_hand_pinky_middle
  transform:
    translation:
      x: -0.003929780330508947
      y: -1.3774239526753718e-08
      z: 0.03982950374484062
    rotation:
      x: 4.988224944213471e-08
      y: 0.014058181084692478
      z: 3.3311222669141216e-09
      w: 0.9999011754989624
---
transforms:
- header:
    stamp:
      sec: 78
      nanosec: 667353295
    frame_id: waist_link_2
  child_frame_id: waist_link_3
  transform:
    translation:
      x: 0.3300001621246338
      y: 1.275045775628314e-07
      z: -2.0227022901053715e-07
    rotation:
      x: 0.0020077123772352934
      y: 0.00044552519102580845
      z: -0.976253092288971
      w: -0.21662333607673645
---
transforms:
- header:
    stamp:
      sec: 78
      nanosec: 667353295
    frame_id: left_hand_hand_base_link
  child_frame_id: left_hand_ring_proximal
  transform:
    translation:
      x: 0.00016039606998674572
      y: 0.013572978787124157
      z: 0.11971982568502426
    rotation:
      x: -6.327727675170536e-08
      y: 0.0002837702340912074
      z: -1.357822441150347e-07
      w: 1.0
---
transforms:
- header:
    stamp:
      sec: 78
      nanosec: 667353295
    frame_id: left_hand_ring_proximal
  child_frame_id: left_hand_ring_middle
  transform:
    translation:
      x: -0.003929954953491688
      y: 1.0161311791989647e-07
      z: 0.039829328656196594
    rotation:
      x: 4.9372189891983e-08
      y: 0.013607376255095005
      z: 1.79783995690741e-07
      w: 0.9999074935913086
---
transforms:
- header:
    stamp:
      sec: 78
      nanosec: 667353295
    frame_id: left_hand_ring_middle
  child_frame_id: left_hand_ring_distal
  transform:
    translation:
      x: 0.0060144090093672276
      y: -6.453884537904742e-08
      z: 0.026441505178809166
    rotation:
      x: 1.2329533838340012e-08
      y: -6.222164756763959e-07
      z: -4.315485924166751e-08
      w: 1.0
---
transforms:
- header:
    stamp:
      sec: 78
      nanosec: 667353295
    frame_id: left_link_1
  child_frame_id: left_link_2
  transform:
    translation:
      x: -5.879048714518831e-08
      y: 2.478374128145333e-08
      z: -0.09701251238584518
    rotation:
      x: 0.7071080207824707
      y: -2.133351017619134e-06
      z: 2.239737568743294e-06
      w: 0.7071055769920349
---
transforms:
- header:
    stamp:
      sec: 78
      nanosec: 687617743
    frame_id: right_hand_hand_base_link
  child_frame_id: right_hand_index_metacarpals
  transform:
    translation:
      x: 0.40797528624534607
      y: -0.030878813937306404
      z: 0.1187010183930397
    rotation:
      x: 0.0017414262983947992
      y: -0.0016531074652448297
      z: 0.9999969005584717
      w: -0.0007618378731422126
---
transforms:
- header:
    stamp:
      sec: 78
      nanosec: 687617743
    frame_id: left_link_3
  child_frame_id: left_link_4
  transform:
    translation:
      x: 0.010000012814998627
      y: -7.054859452182427e-08
      z: 0.23050560057163239
    rotation:
      x: -0.7071066498756409
      y: 2.2182516659086104e-06
      z: 2.1705250219383743e-06
      w: 0.70710688829422
---
transforms:
- header:
    stamp:
      sec: 78
      nanosec: 687617743
    frame_id: base_link
  child_frame_id: right_wheel_link
  transform:
    translation:
      x: 0.009745750576257706
      y: -0.12777014076709747
      z: 0.04780019074678421
    rotation:
      x: -0.7064266204833984
      y: -0.031007342040538788
      z: -0.031007347628474236
      w: 0.7064266204833984
---
transforms:
- header:
    stamp:
      sec: 78
      nanosec: 687617743
    frame_id: right_hand_index_proximal
  child_frame_id: right_hand_index_middle
  transform:
    translation:
      x: 0.40348395705223083
      y: -8.807035919744521e-05
      z: 0.03951016068458557
    rotation:
      x: -0.015247526578605175
      y: 3.4174820029875264e-05
      z: 0.9998834729194641
      w: -0.0007806502981111407
---
transforms:
- header:
    stamp:
      sec: 78
      nanosec: 687617743
    frame_id: left_hand_thumb_proximal
  child_frame_id: left_hand_thumb_distal
  transform:
    translation:
      x: -0.0015554374549537897
      y: 0.0014993121149018407
      z: 0.03452816605567932
    rotation:
      x: 1.7570080501627672e-07
      y: 0.00026784834335558116
      z: 3.2302224894920073e-07
      w: 1.0
---
transforms:
- header:
    stamp:
      sec: 78
      nanosec: 687617743
    frame_id: right_hand_hand_base_link
  child_frame_id: right_hand_middle_metacarpals
  transform:
    translation:
      x: 0.4079389274120331
      y: -0.006761233787983656
      z: 0.11870315670967102
    rotation:
      x: 0.001740980427712202
      y: -0.0014448834117501974
      z: 0.9999971389770508
      w: -0.0007612716290168464
---
transforms:
- header:
    stamp:
      sec: 78
      nanosec: 687617743
    frame_id: left_hand_index_metacarpals
  child_frame_id: left_hand_index_proximal
  transform:
    translation:
      x: 0.007370541337877512
      y: -8.177418209243115e-08
      z: -9.530578245176002e-05
    rotation:
      x: 9.62766844025964e-09
      y: 0.0002890856994781643
      z: -1.9630762437827798e-07
      w: 1.0
---
transforms:
- header:
    stamp:
      sec: 78
      nanosec: 687617743
    frame_id: right_hand_middle_metacarpals
  child_frame_id: right_hand_middle_proximal
  transform:
    translation:
      x: 0.4077683389186859
      y: -9.771643817657605e-05
      z: -0.000731263542547822
    rotation:
      x: -0.0022289780899882317
      y: 7.23793709767051e-05
      z: 0.9999972581863403
      w: -0.0007725179893895984
---
transforms:
- header:
    stamp:
      sec: 78
      nanosec: 687617743
    frame_id: right_link_4
  child_frame_id: right_link_5
  transform:
    translation:
      x: -0.009999924339354038
      y: -0.12899459898471832
      z: -9.53937728809251e-07
    rotation:
      x: -0.7071066498756409
      y: -0.0003891221422236413
      z: -0.00038871841388754547
      w: 0.7071066498756409
---
transforms:
- header:
    stamp:
      sec: 78
      nanosec: 687617743
    frame_id: right_hand_middle_middle
  child_frame_id: right_hand_middle_distal
  transform:
    translation:
      x: 0.4025292992591858
      y: -0.00021224803640507162
      z: 0.04376836121082306
    rotation:
      x: -0.030509283766150475
      y: 7.476213795598596e-05
      z: 0.9995341897010803
      w: -0.0007525223772972822
---
transforms:
- header:
    stamp:
      sec: 78
      nanosec: 687617743
    frame_id: right_hand_pinky_proximal
  child_frame_id: right_hand_pinky_middle
  transform:
    translation:
      x: 0.4043309688568115
      y: -0.00010891522833844647
      z: 0.03942257910966873
    rotation:
      x: -0.01235171314328909
      y: -6.154941365821287e-05
      z: 0.9999234080314636
      w: -0.0007632964407093823
---
transforms:
- header:
    stamp:
      sec: 78
      nanosec: 687617743
    frame_id: chest_link
  child_frame_id: neck_link
  transform:
    translation:
      x: 1.0770642120405682e-06
      y: 0.01550007238984108
      z: 0.35670164227485657
    rotation:
      x: -3.5245655283233646e-08
      y: 8.636959591967752e-08
      z: -8.31569341244176e-05
      w: 1.0
---
transforms:
- header:
    stamp:
      sec: 78
      nanosec: 687617743
    frame_id: left_hand_middle_middle
  child_frame_id: left_hand_middle_distal
  transform:
    translation:
      x: 0.0036295284517109394
      y: -7.962644588133116e-08
      z: 0.03161170706152916
    rotation:
      x: 7.276932478816889e-08
      y: -1.4097126950218808e-06
      z: -1.2629124057639274e-07
      w: 1.0
---
transforms:
- header:
    stamp:
      sec: 78
      nanosec: 687617743
    frame_id: neck_link
  child_frame_id: head_link
  transform:
    translation:
      x: -2.0507686713244766e-06
      y: -1.1479177430828713e-07
      z: 0.07283501327037811
    rotation:
      x: 2.682496233319398e-05
      y: 0.7071080207824707
      z: 2.664444582478609e-05
      w: 0.7071055173873901
---
transforms:
- header:
    stamp:
      sec: 78
      nanosec: 687617743
    frame_id: right_hand_hand_base_link
  child_frame_id: right_hand_thumb_metacarpals_base1
  transform:
    translation:
      x: 0.4080069661140442
      y: -0.022369807586073875
      z: 0.03959525004029274
    rotation:
      x: 0.0016881435876712203
      y: 0.06348305940628052
      z: 0.9979811906814575
      w: -0.0008727821405045688
---
transforms:
- header:
    stamp:
      sec: 78
      nanosec: 687617743
    frame_id: left_hand_pinky_proximal
  child_frame_id: left_hand_pinky_middle
  transform:
    translation:
      x: -0.003929796162992716
      y: -1.2172476715477387e-07
      z: 0.03982952982187271
    rotation:
      x: 5.994560581257247e-08
      y: 0.014057419262826443
      z: 1.287033626340417e-07
      w: 0.9999012351036072
---
transforms:
- header:
    stamp:
      sec: 78
      nanosec: 687617743
    frame_id: right_hand_thumb_metacarpals_base1
  child_frame_id: right_hand_thumb_metacarpals_base2
  transform:
    translation:
      x: 0.3804658353328705
      y: -0.003370728576555848
      z: -0.0005922432173974812
    rotation:
      x: 0.0016218064120039344
      y: -0.006674078293144703
      z: 0.999975860118866
      w: -0.0010927937692031264
---
transforms:
- header:
    stamp:
      sec: 78
      nanosec: 687617743
    frame_id: right_hand_thumb_metacarpals_base2
  child_frame_id: right_hand_thumb_metacarpals
  transform:
    translation:
      x: 0.32967305183410645
      y: 0.006471291650086641
      z: 0.006102525629103184
    rotation:
      x: 0.182341068983078
      y: -0.38351258635520935
      z: 0.3762786388397217
      w: 0.8234586715698242
---
transforms:
- header:
    stamp:
      sec: 78
      nanosec: 687617743
    frame_id: right_hand_thumb_metacarpals
  child_frame_id: right_hand_thumb_proximal
  transform:
    translation:
      x: -0.10292579978704453
      y: -0.20165033638477325
      z: 0.1868717521429062
    rotation:
      x: -0.5069043636322021
      y: 0.01190444640815258
      z: -0.4491567611694336
      w: 0.7356387972831726
---
transforms:
- header:
    stamp:
      sec: 78
      nanosec: 687617743
    frame_id: left_link_1
  child_frame_id: left_link_2
  transform:
    translation:
      x: -5.2480906731489085e-08
      y: -1.5006500575509563e-07
      z: -0.09701251238584518
    rotation:
      x: 0.7071080803871155
      y: -2.2187334707268747e-06
      z: 2.394610874034697e-06
      w: 0.7071055173873901
---
transforms:
- header:
    stamp:
      sec: 78
      nanosec: 711648384
    frame_id: right_hand_hand_base_link
  child_frame_id: right_hand_index_metacarpals
  transform:
    translation:
      x: 0.4079754650592804
      y: -0.030879413709044456
      z: 0.11870068311691284
    rotation:
      x: 0.001741600688546896
      y: -0.001653196639381349
      z: 0.9999968409538269
      w: -0.0007610830361954868
---
transforms:
- header:
    stamp:
      sec: 78
      nanosec: 711648384
    frame_id: left_hand_thumb_metacarpals_base2
  child_frame_id: left_hand_thumb_metacarpals
  transform:
    translation:
      x: 0.016131922602653503
      y: -0.016304852440953255
      z: 0.006860941182821989
    rotation:
      x: 0.39041560888290405
      y: -0.16295069456100464
      z: 0.8361919522285461
      w: 0.3490070700645447
---
transforms:
- header:
    stamp:
      sec: 78
      nanosec: 711648384
    frame_id: right_hand_index_proximal
  child_frame_id: right_hand_index_middle
  transform:
    translation:
      x: 0.4034841060638428
      y: -8.898595842765644e-05
      z: 0.03950980305671692
    rotation:
      x: -0.015248371288180351
      y: 3.353958163643256e-05
      z: 0.9998834729194641
      w: -0.0007808086229488254
---
transforms:
- header:
    stamp:
      sec: 78
      nanosec: 711648384
    frame_id: right_hand_index_middle
  child_frame_id: right_hand_index_distal
  transform:
    translation:
      x: 0.39932167530059814
      y: -9.643829253036529e-05
      z: 0.039458565413951874
    rotation:
      x: -0.032040003687143326
      y: 4.637191159417853e-05
      z: 0.9994863271713257
      w: -0.0007800541934557259
---
transforms:
- header:
    stamp:
      sec: 78
      nanosec: 711648384
    frame_id: left_hand_hand_base_link
  child_frame_id: left_hand_index_metacarpals
  transform:
    translation:
      x: -0.007199783809483051
      y: -0.030777961015701294
      z: 0.11944980919361115
    rotation:
      x: 0.0016994341276586056
      y: -4.3082273748495936e-08
      z: -2.173310349462554e-05
      w: 0.9999985694885254
---
transforms:
- header:
    stamp:
      sec: 78
      nanosec: 711648384
    frame_id: right_hand_middle_metacarpals
  child_frame_id: right_hand_middle_proximal
  transform:
    translation:
      x: 0.4077666699886322
      y: -9.855641110334545e-05
      z: -0.0007304208120331168
    rotation:
      x: -0.002229524776339531
      y: 7.153463229769841e-05
      z: 0.9999972581863403
      w: -0.0007723913295194507
---
transforms:
- header:
    stamp:
      sec: 78
      nanosec: 711648384
    frame_id: right_link_1
  child_frame_id: right_link_2
  transform:
    translation:
      x: -3.830293593409806e-08
      y: 2.0715643245239335e-07
      z: 0.09701251238584518
    rotation:
      x: -0.7071067094802856
      y: 3.718966763699427e-05
      z: 3.7504854844883084e-05
      w: 0.7071068286895752
---
transforms:
- header:
    stamp:
      sec: 78
      nanosec: 711648384
    frame_id: left_hand_index_middle
  child_frame_id: left_hand_index_distal
  transform:
    translation:
      x: 0.005307798273861408
      y: -1.6003822622678854e-07
      z: 0.026591258123517036
    rotation:
      x: -5.590941043465136e-08
      y: -4.786508725374006e-06
      z: 1.2495398493683751e-07
      w: 1.0
---
transforms:
- header:
    stamp:
      sec: 78
      nanosec: 711648384
    frame_id: right_link_3
  child_frame_id: right_link_4
  transform:
    translation:
      x: 0.009998368099331856
      y: -6.794281830480031e-07
      z: -0.23050591349601746
    rotation:
      x: 0.7071080207824707
      y: -4.711519522970775e-06
      z: 4.580663699016441e-06
      w: 0.7071055173873901
---
transforms:
- header:
    stamp:
      sec: 78
      nanosec: 711648384
    frame_id: left_hand_middle_metacarpals
  child_frame_id: left_hand_middle_proximal
  transform:
    translation:
      x: 0.007370544597506523
      y: 1.5648460305328626e-07
      z: -9.513214172329754e-05
    rotation:
      x: 2.635813878271165e-08
      y: 0.002427192870527506
      z: -1.6206480779601407e-07
      w: 0.9999971389770508
---
transforms:
- header:
    stamp:
      sec: 78
      nanosec: 711648384
    frame_id: right_link_6
  child_frame_id: right_link_7
  transform:
    translation:
      x: -5.586447926475557e-08
      y: -0.05599934235215187
      z: 3.28403586991044e-07
    rotation:
      x: 0.0006683894898742437
      y: 0.7071077227592468
      z: -0.0006684289546683431
      w: -0.7071053385734558
---
transforms:
- header:
    stamp:
      sec: 78
      nanosec: 711648384
    frame_id: chest_link
  child_frame_id: neck_link
  transform:
    translation:
      x: 1.0988312624249374e-06
      y: 0.015500071458518505
      z: 0.3567013144493103
    rotation:
      x: -4.0792549782509013e-08
      y: 3.872242615443611e-08
      z: -8.31568831927143e-05
      w: 1.0
---
transforms:
- header:
    stamp:
      sec: 78
      nanosec: 711648384
    frame_id: neck_link
  child_frame_id: head_link
  transform:
    translation:
      x: -2.0374498035380384e-06
      y: -4.3673075822425744e-08
      z: 0.07283465564250946
    rotation:
      x: 2.690002838789951e-05
      y: 0.7071080207824707
      z: 2.677892189240083e-05
      w: 0.7071055769920349
---
transforms:
- header:
    stamp:
      sec: 78
      nanosec: 711648384
    frame_id: left_hand_pinky_proximal
  child_frame_id: left_hand_pinky_middle
  transform:
    translation:
      x: -0.0039297412149608135
      y: 5.808899317116811e-08
      z: 0.039829500019550323
    rotation:
      x: 1.6557439153075393e-07
      y: 0.014056770130991936
      z: 1.162094953599535e-08
      w: 0.9999012351036072
---
transforms:
- header:
    stamp:
      sec: 78
      nanosec: 711648384
    frame_id: right_hand_hand_base_link
  child_frame_id: right_hand_thumb_metacarpals_base1
  transform:
    translation:
      x: 0.40800705552101135
      y: -0.02237030677497387
      z: 0.0395951010286808
    rotation:
      x: 0.0016884193755686283
      y: 0.06348437070846558
      z: 0.9979810118675232
      w: -0.0008729042019695044
---
transforms:
- header:
    stamp:
      sec: 78
      nanosec: 711648384
    frame_id: waist_link_1
  child_frame_id: waist_link_2
  transform:
    translation:
      x: 0.2900000810623169
      y: 6.373863925546175e-08
      z: -1.1925818625968532e-06
    rotation:
      x: 0.002007866045460105
      y: -0.0004456366295926273
      z: 0.21664656698703766
      w: 0.9762479066848755
---
transforms:
- header:
    stamp:
      sec: 78
      nanosec: 711648384
    frame_id: left_hand_ring_proximal
  child_frame_id: left_hand_ring_middle
  transform:
    translation:
      x: -0.003929918631911278
      y: 6.089271664677653e-08
      z: 0.039829518646001816
    rotation:
      x: 9.9147655419074e-08
      y: 0.013605977408587933
      z: -6.688682674393931e-08
      w: 0.9999074339866638
---
transforms:
- header:
    stamp:
      sec: 78
      nanosec: 711648384
    frame_id: right_hand_thumb_metacarpals_base1
  child_frame_id: right_hand_thumb_metacarpals_base2
  transform:
    translation:
      x: 0.3804660737514496
      y: -0.003371174680069089
      z: -0.000591662188526243
    rotation:
      x: 0.001622100593522191
      y: -0.006669973023235798
      z: 0.999975860118866
      w: -0.0010931033175438643
---
transforms:
- header:
    stamp:
      sec: 78
      nanosec: 731654627
    frame_id: right_hand_thumb_metacarpals_base2
  child_frame_id: right_hand_thumb_metacarpals
  transform:
    translation:
      x: 0.32967299222946167
      y: 0.0064714569598436356
      z: 0.006103274412453175
    rotation:
      x: 0.18234075605869293
      y: -0.3835119903087616
      z: 0.3762792944908142
      w: 0.8234587907791138
---
transforms:
- header:
    stamp:
      sec: 78
      nanosec: 731654627
    frame_id: left_hand_hand_base_link
  child_frame_id: left_hand_thumb_metacarpals_base1
  transform:
    translation:
      x: -0.007522836327552795
      y: -0.022278010845184326
      z: 0.04024980217218399
    rotation:
      x: -0.07014188915491104
      y: 2.0802886524506903e-07
      z: -1.0873767664065781e-08
      w: 0.9975370764732361
---
transforms:
- header:
    stamp:
      sec: 78
      nanosec: 731654627
    frame_id: right_hand_thumb_metacarpals
  child_frame_id: right_hand_thumb_proximal
  transform:
    translation:
      x: -0.1029243990778923
      y: -0.20164895057678223
      z: 0.18687118589878082
    rotation:
      x: -0.5069038271903992
      y: 0.011904710903763771
      z: -0.449156790971756
      w: 0.7356392741203308
---
transforms:
- header:
    stamp:
      sec: 78
      nanosec: 731654627
    frame_id: left_link_4
  child_frame_id: left_link_5
  transform:
    translation:
      x: -0.01000012457370758
      y: -0.12899473309516907
      z: -1.833287797126104e-07
    rotation:
      x: 0.7071080207824707
      y: -0.00039344423566944897
      z: 0.0003933447878807783
      w: 0.7071053385734558
---
transforms:
- header:
    stamp:
      sec: 78
      nanosec: 731654627
    frame_id: right_hand_index_metacarpals
  child_frame_id: right_hand_index_proximal
  transform:
    translation:
      x: 0.4078046679496765
      y: -9.666434925748035e-05
      z: -0.0007236376404762268
    rotation:
      x: 0.000237797197769396
      y: 4.5976503315614536e-05
      z: 0.9999996423721313
      w: -0.0007801594911143184
---
transforms:
- header:
    stamp:
      sec: 78
      nanosec: 731654627
    frame_id: left_hand_thumb_proximal
  child_frame_id: left_hand_thumb_distal
  transform:
    translation:
      x: -0.0015553828561678529
      y: 0.0014993251534178853
      z: 0.034528300166130066
    rotation:
      x: 2.466709929649369e-07
      y: 0.000267822208115831
      z: 4.811796472381502e-08
      w: 1.0
---
transforms:
- header:
    stamp:
      sec: 78
      nanosec: 731654627
    frame_id: chest_link
  child_frame_id: right_link_1
  transform:
    translation:
      x: -0.10298696160316467
      y: 1.9725037603279816e-08
      z: 0.2979998290538788
    rotation:
      x: 0.0003956681175623089
      y: 0.7071080207824707
      z: -0.00039572763489559293
      w: -0.7071053981781006
---
transforms:
- header:
    stamp:
      sec: 78
      nanosec: 731654627
    frame_id: left_hand_hand_base_link
  child_frame_id: left_hand_index_metacarpals
  transform:
    translation:
      x: -0.0071997675113379955
      y: -0.030777931213378906
      z: 0.11944995820522308
    rotation:
      x: 0.0016995237674564123
      y: 1.7262730978018226e-07
      z: -2.177589340135455e-05
      w: 0.9999985694885254
---
transforms:
- header:
    stamp:
      sec: 78
      nanosec: 731654627
    frame_id: right_hand_hand_base_link
  child_frame_id: right_hand_middle_metacarpals
  transform:
    translation:
      x: 0.40793877840042114
      y: -0.0067611881531775
      z: 0.11870300769805908
    rotation:
      x: 0.0017414524918422103
      y: -0.0014448914444074035
      z: 0.9999971389770508
      w: -0.000761608884204179
---
transforms:
- header:
    stamp:
      sec: 78
      nanosec: 731654627
    frame_id: right_hand_middle_middle
  child_frame_id: right_hand_middle_distal
  transform:
    translation:
      x: 0.4025295674800873
      y: -0.00021226383978500962
      z: 0.04376881197094917
    rotation:
      x: -0.030508780851960182
      y: 7.45869183447212e-05
      z: 0.9995342493057251
      w: -0.0007523323292843997
---
transforms:
- header:
    stamp:
      sec: 78
      nanosec: 731654627
    frame_id: right_hand_hand_base_link
  child_frame_id: right_hand_pinky_proximal
  transform:
    translation:
      x: 0.40049371123313904
      y: 0.03351911902427673
      z: 0.1120934784412384
    rotation:
      x: 0.0011214143596589565
      y: -5.170833537704311e-05
      z: 0.9999991059303284
      w: -0.0007640508119948208
---
transforms:
- header:
    stamp:
      sec: 78
      nanosec: 731654627
    frame_id: right_hand_pinky_middle
  child_frame_id: right_hand_pinky_distal
  transform:
    translation:
      x: 0.4007103443145752
      y: -0.00012184283696115017
      z: 0.03715703263878822
    rotation:
      x: -0.027153313159942627
      y: -5.1680352044058964e-05
      z: 0.9996310472488403
      w: -0.0007638463866896927
---
transforms:
- header:
    stamp:
      sec: 78
      nanosec: 731654627
    frame_id: right_hand_hand_base_link
  child_frame_id: right_hand_ring_proximal
  transform:
    translation:
      x: 0.4005485773086548
      y: 0.013461039401590824
      z: 0.11909528076648712
    rotation:
      x: 0.00021796091459691525
      y: -5.2325263823149726e-05
      z: 0.9999997615814209
      w: -0.0007638234528712928
---
transforms:
- header:
    stamp:
      sec: 78
      nanosec: 731654627
    frame_id: right_hand_ring_proximal
  child_frame_id: right_hand_ring_middle
  transform:
    translation:
      x: 0.40431350469589233
      y: -0.00011003706458723173
      z: 0.03943316265940666
    rotation:
      x: -0.012433565221726894
      y: -6.173759902594611e-05
      z: 0.9999224543571472
      w: -0.0007632001652382314
---
transforms:
- header:
    stamp:
      sec: 78
      nanosec: 731654627
    frame_id: body_base_link
  child_frame_id: waist_link_1
  transform:
    translation:
      x: -9.092702271118469e-07
      y: 7.617911251145415e-06
      z: -4.2856259824475273e-05
    rotation:
      x: 0.500880241394043
      y: 0.4991188049316406
      z: 0.5001696944236755
      w: -0.49982962012290955
---
transforms:
- header:
    stamp:
      sec: 78
      nanosec: 731654627
    frame_id: right_hand_hand_base_link
  child_frame_id: right_hand_thumb_metacarpals_base1
  transform:
    translation:
      x: 0.4080067574977875
      y: -0.022369859740138054
      z: 0.03959506005048752
    rotation:
      x: 0.0016883501084521413
      y: 0.0634831115603447
      z: 0.9979811310768127
      w: -0.0008730189874768257
---
transforms:
- header:
    stamp:
      sec: 78
      nanosec: 731654627
    frame_id: left_hand_pinky_middle
  child_frame_id: left_hand_pinky_distal
  transform:
    translation:
      x: 0.006011907942593098
      y: -5.115153101087344e-08
      z: 0.02644127607345581
    rotation:
      x: 1.78055728383697e-07
      y: 0.0003245921980123967
      z: -4.491311145216059e-08
      w: 1.0
---
transforms:
- header:
    stamp:
      sec: 78
      nanosec: 750853436
    frame_id: left_hand_hand_base_link
  child_frame_id: left_hand_ring_proximal
  transform:
    translation:
      x: 0.0001604598801350221
      y: 0.013573190197348595
      z: 0.11971976608037949
    rotation:
      x: -1.3232140361196798e-07
      y: 0.000284038542304188
      z: 7.527492584813444e-08
      w: 1.0
---
transforms:
- header:
    stamp:
      sec: 78
      nanosec: 750853436
    frame_id: right_hand_thumb_metacarpals
  child_frame_id: right_hand_thumb_proximal
  transform:
    translation:
      x: -0.1029243990778923
      y: -0.20164895057678223
      z: 0.18687118589878082
    rotation:
      x: -0.5069038271903992
      y: 0.011904710903763771
      z: -0.449156790971756
      w: 0.7356392741203308
---
transforms:
- header:
    stamp:
      sec: 78
      nanosec: 750853436
    frame_id: left_hand_ring_middle
  child_frame_id: left_hand_ring_distal
  transform:
    translation:
      x: 0.0060144513845443726
      y: 4.76375028313214e-09
      z: 0.02644156478345394
    rotation:
      x: 1.0945353068336772e-07
      y: -5.644519660563674e-07
      z: 1.6934315283378965e-07
      w: 1.0
---
transforms:
- header:
    stamp:
      sec: 78
      nanosec: 750853436
    frame_id: right_hand_hand_base_link
  child_frame_id: right_hand_index_metacarpals
  transform:
    translation:
      x: 0.4079751670360565
      y: -0.030878715217113495
      z: 0.11870058625936508
    rotation:
      x: 0.0017415388720110059
      y: -0.0016524635720998049
      z: 0.9999968409538269
      w: -0.0007613332709297538
---
transforms:
- header:
    stamp:
      sec: 78
      nanosec: 750853436
    frame_id: left_link_3
  child_frame_id: left_link_4
  transform:
    translation:
      x: 0.010000035166740417
      y: 8.97288359169579e-08
      z: 0.2305053323507309
    rotation:
      x: -0.70710688829422
      y: 2.200009930675151e-06
      z: 2.0837924239458516e-06
      w: 0.7071068286895752
---
transforms:
- header:
    stamp:
      sec: 78
      nanosec: 750853436
    frame_id: left_link_4
  child_frame_id: left_link_5
  transform:
    translation:
      x: -0.010000078938901424
      y: -0.1289951056241989
      z: -7.78821842573052e-08
    rotation:
      x: 0.7071081399917603
      y: -0.0003932618710678071
      z: 0.0003928805817849934
      w: 0.707105278968811
---
transforms:
- header:
    stamp:
      sec: 78
      nanosec: 750853436
    frame_id: left_hand_thumb_metacarpals_base2
  child_frame_id: left_hand_thumb_metacarpals
  transform:
    translation:
      x: 0.0161319337785244
      y: -0.016304820775985718
      z: 0.006860824301838875
    rotation:
      x: 0.3904157280921936
      y: -0.16295050084590912
      z: 0.836191713809967
      w: 0.3490075170993805
---
transforms:
- header:
    stamp:
      sec: 78
      nanosec: 750853436
    frame_id: left_hand_thumb_proximal
  child_frame_id: left_hand_thumb_distal
  transform:
    translation:
      x: -0.0015554389683529735
      y: 0.0014991656644269824
      z: 0.034528061747550964
    rotation:
      x: 2.191406451856892e-07
      y: 0.00026828551199287176
      z: -2.0982719561857266e-08
      w: 1.0
---
transforms:
- header:
    stamp:
      sec: 78
      nanosec: 750853436
    frame_id: right_link_1
  child_frame_id: right_link_2
  transform:
    translation:
      x: 2.1133573113729653e-07
      y: -6.598263269097515e-08
      z: 0.09701251983642578
    rotation:
      x: -0.7071067094802856
      y: 3.722375913639553e-05
      z: 3.755458237719722e-05
      w: 0.7071069478988647
---
transforms:
- header:
    stamp:
      sec: 78
      nanosec: 750853436
    frame_id: left_hand_index_proximal
  child_frame_id: left_hand_index_middle
  transform:
    translation:
      x: -0.0030524469912052155
      y: -5.4286588557772575e-09
      z: 0.0399063378572464
    rotation:
      x: -9.677444268163526e-08
      y: 0.016800984740257263
      z: 2.514724144475622e-07
      w: 0.9998589158058167
---
transforms:
- header:
    stamp:
      sec: 78
      nanosec: 750853436
    frame_id: left_hand_index_middle
  child_frame_id: left_hand_index_distal
  transform:
    translation:
      x: 0.005307700019329786
      y: -4.3683265005256544e-08
      z: 0.026591874659061432
    rotation:
      x: 4.270943421147422e-08
      y: -4.814824478671653e-06
      z: -1.253945356438635e-07
      w: 1.0
---
transforms:
- header:
    stamp:
      sec: 78
      nanosec: 750853436
    frame_id: right_link_4
  child_frame_id: right_link_5
  transform:
    translation:
      x: -0.010000032372772694
      y: -0.12899473309516907
      z: -8.933185426940327e-07
    rotation:
      x: -0.7071067094802856
      y: -0.0003887742350343615
      z: -0.00038880977081134915
      w: 0.7071066498756409
---
transforms:
- header:
    stamp:
      sec: 78
      nanosec: 750853436
    frame_id: left_hand_middle_metacarpals
  child_frame_id: left_hand_middle_proximal
  transform:
    translation:
      x: 0.007370544131845236
      y: 4.9637819188319554e-08
      z: -9.522263280814514e-05
    rotation:
      x: 1.3845204094309338e-08
      y: 0.0024277721531689167
      z: 7.021366599246903e-09
      w: 0.999997079372406
---
transforms:
- header:
    stamp:
      sec: 78
      nanosec: 750853436
    frame_id: left_hand_middle_proximal
  child_frame_id: left_hand_middle_middle
  transform:
    translation:
      x: -0.004144854843616486
      y: 2.4273711574096524e-07
      z: 0.044827625155448914
    rotation:
      x: 6.978192601536648e-08
      y: 0.013586499728262424
      z: -1.16699681029786e-08
      w: 0.9999076724052429
---
transforms:
- header:
    stamp:
      sec: 78
      nanosec: 750853436
    frame_id: right_hand_pinky_proximal
  child_frame_id: right_hand_pinky_middle
  transform:
    translation:
      x: 0.40433087944984436
      y: -0.00010929185373242944
      z: 0.03942258656024933
    rotation:
      x: -0.012351203709840775
      y: -6.214775930857286e-05
      z: 0.9999234080314636
      w: -0.0007632820052094758
---
transforms:
- header:
    stamp:
      sec: 78
      nanosec: 750853436
    frame_id: left_hand_hand_base_link
  child_frame_id: left_hand_pinky_proximal
  transform:
    translation:
      x: 0.00015897629782557487
      y: 0.03362995386123657
      z: 0.1127198114991188
    rotation:
      x: -2.2715159531117024e-08
      y: 0.0002814047038555145
      z: 1.9874109113970917e-07
      w: 1.0
---
transforms:
- header:
    stamp:
      sec: 78
      nanosec: 750853436
    frame_id: right_hand_ring_proximal
  child_frame_id: right_hand_ring_middle
  transform:
    translation:
      x: 0.4043135643005371
      y: -0.00011015358177246526
      z: 0.03943281248211861
    rotation:
