transforms:
- header:
    stamp:
      sec: 89
      nanosec: 972663399
    frame_id: IMU_link
  child_frame_id: IMU_imu_sensor_link
  transform:
    translation:
      x: 0.0
      y: 0.0
      z: 0.0
    rotation:
      x: 0.0
      y: 0.0
      z: 0.0
      w: 1.0
---
transforms:
- header:
    stamp:
      sec: 72
      nanosec: 148658184
    frame_id: chest_lidar_hesai_link
  child_frame_id: chest_lidar_hesai_laser
  transform:
    translation:
      x: 0.0
      y: 0.0
      z: 0.0
    rotation:
      x: 0.0
      y: 0.0
      z: 0.0
      w: 1.0
---
transforms:
- header:
    stamp:
      sec: 72
      nanosec: 316359304
    frame_id: base_link
  child_frame_id: IMU_link
  transform:
    translation:
      x: -3.317606100949888e-08
      y: 8.345213586835598e-07
      z: 0.09000003337860107
    rotation:
      x: 1.0949254740724723e-13
      y: 2.8672785242563233e-15
      z: 4.656515728562738e-10
      w: 1.0
- header:
    stamp:
      sec: 72
      nanosec: 316359304
    frame_id: base_link
  child_frame_id: body_base_link
  transform:
    translation:
      x: 0.010001123882830143
      y: -5.37006781087257e-06
      z: 0.2950854003429413
    rotation:
      x: -1.4900041200860414e-08
      y: -7.568047521999688e-08
      z: 1.8589376704625238e-09
      w: 1.0
- header:
    stamp:
      sec: 72
      nanosec: 316359304
    frame_id: chest_link
  child_frame_id: chest_camera_link
  transform:
    translation:
      x: -0.0002104654849972576
      y: -0.11243999004364014
      z: 0.29241037368774414
    rotation:
      x: 0.14701558649539948
      y: 0.147015780210495
      z: -0.6916547417640686
      w: 0.6916549801826477
- header:
    stamp:
      sec: 72
      nanosec: 316359304
    frame_id: base_link
  child_frame_id: chest_lidar_hesai_link
  transform:
    translation:
      x: 0.23000021278858185
      y: 3.549700693383784e-07
      z: 0.2300000935792923
    rotation:
      x: 0.17301517724990845
      y: 0.17301511764526367
      z: 0.6856133937835693
      w: 0.6856135129928589
- header:
    stamp:
      sec: 72
      nanosec: 316359304
    frame_id: left_link_7
  child_frame_id: left_tool_base_link
  transform:
    translation:
      x: 2.1335756628104718e-07
      y: -0.0710008293390274
      z: 1.981965027653132e-07
    rotation:
      x: -2.475612518537673e-06
      y: 0.7071055173873901
      z: -0.7071080803871155
      w: -2.7969820166617865e-06
- header:
    stamp:
      sec: 72
      nanosec: 316359304
    frame_id: right_link_7
  child_frame_id: right_tool_base_link
  transform:
    translation:
      x: -1.2985684350041993e-07
      y: -0.07100087404251099
      z: -1.2240536761964904e-07
    rotation:
      x: 2.778698899419396e-06
      y: 0.7071082592010498
      z: -0.707105278968811
      w: -2.341034587516333e-06
- header:
    stamp:
      sec: 72
      nanosec: 316359304
    frame_id: left_tool_base_link
  child_frame_id: left_hand_hand_base_link
  transform:
    translation:
      x: -1.9042756775888847e-06
      y: 2.5715758056321647e-07
      z: -3.610158216815762e-07
    rotation:
      x: -2.1063476651761448e-07
      y: -8.453549327214205e-08
      z: -8.427177533576469e-08
      w: 1.0
- header:
    stamp:
      sec: 72
      nanosec: 316359304
    frame_id: right_tool_base_link
  child_frame_id: right_hand_hand_base_link
  transform:
    translation:
      x: -5.96142557540702e-09
      y: -2.4024353706408874e-07
      z: -5.952838932898885e-07
    rotation:
      x: 1.6819457471228816e-07
      y: 1.6929172375057533e-07
      z: -4.356783023240496e-08
      w: 1.0
- header:
    stamp:
      sec: 72
      nanosec: 316359304
    frame_id: base_footprint
  child_frame_id: base_link
  transform:
    translation:
      x: 0.0
      y: 0.0
      z: 0.0
    rotation:
      x: 0.0
      y: 0.0
      z: 0.0
      w: 1.0
---
transforms:
- header:
    stamp:
      sec: 89
      nanosec: 804588683
    frame_id: chest_link
  child_frame_id: chest_camera_link
  transform:
    translation:
      x: -0.0002101660065818578
      y: -0.11243999749422073
      z: 0.2924101948738098
    rotation:
      x: 0.14701567590236664
      y: 0.1470157355070114
      z: -0.6916547417640686
      w: 0.6916549801826477
- header:
    stamp:
      sec: 89
      nanosec: 804588683
    frame_id: chest_camera_link
  child_frame_id: chest_camera_camera_color_frame
  transform:
    translation:
      x: 0.0
      y: -0.011300000362098217
      z: 0.0
    rotation:
      x: 0.0
      y: 0.0
      z: 0.0
      w: 1.0
- header:
    stamp:
      sec: 89
      nanosec: 804588683
    frame_id: chest_camera_link
  child_frame_id: chest_camera_camera_aligned_depth_to_color_frame
  transform:
    translation:
      x: 0.0
      y: -0.011300000362098217
      z: 0.0
    rotation:
      x: 0.0
      y: 0.0
      z: 0.0
      w: 1.0
- header:
    stamp:
      sec: 89
      nanosec: 804588683
    frame_id: chest_camera_link
  child_frame_id: imu_link
  transform:
    translation:
      x: -0.016019999980926514
      y: -0.030220000073313713
      z: 0.007400000002235174
    rotation:
      x: 0.0
      y: 0.0
      z: 0.0
      w: 1.0
---
transforms:
- header:
    stamp:
      sec: 90
      nanosec: 304588683
    frame_id: chest_link
  child_frame_id: chest_camera_link
  transform:
    translation:
      x: -0.0002101660065818578
      y: -0.11243999749422073
      z: 0.2924101948738098
    rotation:
      x: 0.14701567590236664
      y: 0.1470157355070114
      z: -0.6916547417640686
      w: 0.6916549801826477
- header:
    stamp:
      sec: 90
      nanosec: 304588683
    frame_id: chest_camera_link
  child_frame_id: chest_camera_camera_color_frame
  transform:
    translation:
      x: 0.0
      y: -0.011300000362098217
      z: 0.0
    rotation:
      x: 0.0
      y: 0.0
      z: 0.0
      w: 1.0
- header:
    stamp:
      sec: 90
      nanosec: 304588683
    frame_id: chest_camera_link
  child_frame_id: chest_camera_camera_aligned_depth_to_color_frame
  transform:
    translation:
      x: 0.0
      y: -0.011300000362098217
      z: 0.0
    rotation:
      x: 0.0
      y: 0.0
      z: 0.0
      w: 1.0
- header:
    stamp:
      sec: 90
      nanosec: 304588683
    frame_id: chest_camera_link
  child_frame_id: imu_link
  transform:
    translation:
      x: -0.016019999980926514
      y: -0.030220000073313713
      z: 0.007400000002235174
    rotation:
      x: 0.0
      y: 0.0
      z: 0.0
      w: 1.0
---
transforms:
- header:
    stamp:
      sec: 90
      nanosec: 472663399
    frame_id: IMU_link
  child_frame_id: IMU_imu_sensor_link
  transform:
    translation:
      x: 0.0
      y: 0.0
      z: 0.0
    rotation:
      x: 0.0
      y: 0.0
      z: 0.0
      w: 1.0
---
transforms:
- header:
    stamp:
      sec: 72
      nanosec: 536367517
    frame_id: chest_lidar_hesai_link
  child_frame_id: chest_lidar_hesai_laser
  transform:
    translation:
      x: 0.0
      y: 0.0
      z: 0.0
    rotation:
      x: 0.0
      y: 0.0
      z: 0.0
      w: 1.0
---
transforms:
- header:
    stamp:
      sec: 72
      nanosec: 796359304
    frame_id: base_link
  child_frame_id: IMU_link
  transform:
    translation:
      x: -3.317606100949888e-08
      y: 8.345213586835598e-07
      z: 0.09000003337860107
    rotation:
      x: 1.0949254740724723e-13
      y: 2.8672785242563233e-15
      z: 4.656515728562738e-10
      w: 1.0
- header:
    stamp:
      sec: 72
      nanosec: 796359304
    frame_id: base_link
  child_frame_id: body_base_link
  transform:
    translation:
      x: 0.010001123882830143
      y: -5.37006781087257e-06
      z: 0.2950854003429413
    rotation:
      x: -1.4900041200860414e-08
      y: -7.568047521999688e-08
      z: 1.8589376704625238e-09
      w: 1.0
- header:
    stamp:
      sec: 72
      nanosec: 796359304
    frame_id: chest_link
  child_frame_id: chest_camera_link
  transform:
    translation:
      x: -0.0002104654849972576
      y: -0.11243999004364014
      z: 0.29241037368774414
    rotation:
      x: 0.14701558649539948
      y: 0.147015780210495
      z: -0.6916547417640686
      w: 0.6916549801826477
- header:
    stamp:
      sec: 72
      nanosec: 796359304
    frame_id: base_link
  child_frame_id: chest_lidar_hesai_link
  transform:
    translation:
      x: 0.23000021278858185
      y: 3.549700693383784e-07
      z: 0.2300000935792923
    rotation:
      x: 0.17301517724990845
      y: 0.17301511764526367
      z: 0.6856133937835693
      w: 0.6856135129928589
- header:
    stamp:
      sec: 72
      nanosec: 796359304
    frame_id: left_link_7
  child_frame_id: left_tool_base_link
  transform:
    translation:
      x: 2.1335756628104718e-07
      y: -0.0710008293390274
      z: 1.981965027653132e-07
    rotation:
      x: -2.475612518537673e-06
      y: 0.7071055173873901
      z: -0.7071080803871155
      w: -2.7969820166617865e-06
- header:
    stamp:
      sec: 72
      nanosec: 796359304
    frame_id: right_link_7
  child_frame_id: right_tool_base_link
  transform:
    translation:
      x: -1.2985684350041993e-07
      y: -0.07100087404251099
      z: -1.2240536761964904e-07
    rotation:
      x: 2.778698899419396e-06
      y: 0.7071082592010498
      z: -0.707105278968811
      w: -2.341034587516333e-06
- header:
    stamp:
      sec: 72
      nanosec: 796359304
    frame_id: left_tool_base_link
  child_frame_id: left_hand_hand_base_link
  transform:
    translation:
      x: -1.9042756775888847e-06
      y: 2.5715758056321647e-07
      z: -3.610158216815762e-07
    rotation:
      x: -2.1063476651761448e-07
      y: -8.453549327214205e-08
      z: -8.427177533576469e-08
      w: 1.0
- header:
    stamp:
      sec: 72
      nanosec: 796359304
    frame_id: right_tool_base_link
  child_frame_id: right_hand_hand_base_link
  transform:
    translation:
      x: -5.96142557540702e-09
      y: -2.4024353706408874e-07
      z: -5.952838932898885e-07
    rotation:
      x: 1.6819457471228816e-07
      y: 1.6929172375057533e-07
      z: -4.356783023240496e-08
      w: 1.0
- header:
    stamp:
      sec: 72
      nanosec: 796359304
    frame_id: base_footprint
  child_frame_id: base_link
  transform:
    translation:
      x: 0.0
      y: 0.0
      z: 0.0
    rotation:
      x: 0.0
      y: 0.0
      z: 0.0
      w: 1.0
---
transforms:
- header:
    stamp:
      sec: 90
      nanosec: 771255350
    frame_id: chest_link
  child_frame_id: chest_camera_link
  transform:
    translation:
      x: -0.0002101660065818578
      y: -0.11243999749422073
      z: 0.2924101948738098
    rotation:
      x: 0.14701567590236664
      y: 0.1470157355070114
      z: -0.6916547417640686
      w: 0.6916549801826477
- header:
    stamp:
      sec: 90
      nanosec: 771255350
    frame_id: chest_camera_link
  child_frame_id: chest_camera_camera_color_frame
  transform:
    translation:
      x: 0.0
      y: -0.011300000362098217
      z: 0.0
    rotation:
      x: 0.0
      y: 0.0
      z: 0.0
      w: 1.0
- header:
    stamp:
      sec: 90
      nanosec: 771255350
    frame_id: chest_camera_link
  child_frame_id: chest_camera_camera_aligned_depth_to_color_frame
  transform:
    translation:
      x: 0.0
      y: -0.011300000362098217
      z: 0.0
    rotation:
      x: 0.0
      y: 0.0
      z: 0.0
      w: 1.0
- header:
    stamp:
      sec: 90
      nanosec: 771255350
    frame_id: chest_camera_link
  child_frame_id: imu_link
  transform:
    translation:
      x: -0.016019999980926514
      y: -0.030220000073313713
      z: 0.007400000002235174
    rotation:
      x: 0.0
      y: 0.0
      z: 0.0
      w: 1.0
---
transforms:
- header:
    stamp:
      sec: 90
      nanosec: 972663399
    frame_id: IMU_link
  child_frame_id: IMU_imu_sensor_link
  transform:
    translation:
      x: 0.0
      y: 0.0
      z: 0.0
    rotation:
      x: 0.0
      y: 0.0
      z: 0.0
      w: 1.0
---
transforms:
- header:
    stamp:
      sec: 73
      nanosec: 134166609
    frame_id: chest_lidar_hesai_link
  child_frame_id: chest_lidar_hesai_laser
  transform:
    translation:
      x: 0.0
      y: 0.0
      z: 0.0
    rotation:
      x: 0.0
      y: 0.0
      z: 0.0
      w: 1.0
---
transforms:
- header:
    stamp:
      sec: 73
      nanosec: 296359304
    frame_id: base_link
  child_frame_id: IMU_link
  transform:
    translation:
      x: -3.317606100949888e-08
      y: 8.345213586835598e-07
      z: 0.09000003337860107
    rotation:
      x: 1.0949254740724723e-13
      y: 2.8672785242563233e-15
      z: 4.656515728562738e-10
      w: 1.0
- header:
    stamp:
      sec: 73
      nanosec: 296359304
    frame_id: base_link
  child_frame_id: body_base_link
  transform:
    translation:
      x: 0.010001123882830143
      y: -5.37006781087257e-06
      z: 0.2950854003429413
    rotation:
      x: -1.4900041200860414e-08
      y: -7.568047521999688e-08
      z: 1.8589376704625238e-09
      w: 1.0
- header:
    stamp:
      sec: 73
      nanosec: 296359304
    frame_id: chest_link
  child_frame_id: chest_camera_link
  transform:
    translation:
      x: -0.0002104654849972576
      y: -0.11243999004364014
      z: 0.29241037368774414
    rotation:
      x: 0.14701558649539948
      y: 0.147015780210495
      z: -0.6916547417640686
      w: 0.6916549801826477
- header:
    stamp:
      sec: 73
      nanosec: 296359304
    frame_id: base_link
  child_frame_id: chest_lidar_hesai_link
  transform:
    translation:
      x: 0.23000021278858185
      y: 3.549700693383784e-07
      z: 0.2300000935792923
    rotation:
      x: 0.17301517724990845
      y: 0.17301511764526367
      z: 0.6856133937835693
      w: 0.6856135129928589
- header:
    stamp:
      sec: 73
      nanosec: 296359304
    frame_id: left_link_7
  child_frame_id: left_tool_base_link
  transform:
    translation:
      x: 2.1335756628104718e-07
      y: -0.0710008293390274
      z: 1.981965027653132e-07
    rotation:
      x: -2.475612518537673e-06
      y: 0.7071055173873901
      z: -0.7071080803871155
      w: -2.7969820166617865e-06
- header:
    stamp:
      sec: 73
      nanosec: 296359304
    frame_id: right_link_7
  child_frame_id: right_tool_base_link
  transform:
    translation:
      x: -1.2985684350041993e-07
      y: -0.07100087404251099
      z: -1.2240536761964904e-07
    rotation:
      x: 2.778698899419396e-06
      y: 0.7071082592010498
      z: -0.707105278968811
      w: -2.341034587516333e-06
- header:
    stamp:
      sec: 73
      nanosec: 296359304
    frame_id: left_tool_base_link
  child_frame_id: left_hand_hand_base_link
  transform:
    translation:
      x: -1.9042756775888847e-06
      y: 2.5715758056321647e-07
      z: -3.610158216815762e-07
    rotation:
      x: -2.1063476651761448e-07
      y: -8.453549327214205e-08
      z: -8.427177533576469e-08
      w: 1.0
- header:
    stamp:
      sec: 73
      nanosec: 296359304
    frame_id: right_tool_base_link
  child_frame_id: right_hand_hand_base_link
  transform:
    translation:
      x: -5.96142557540702e-09
      y: -2.4024353706408874e-07
      z: -5.952838932898885e-07
    rotation:
      x: 1.6819457471228816e-07
      y: 1.6929172375057533e-07
      z: -4.356783023240496e-08
      w: 1.0
- header:
    stamp:
      sec: 73
      nanosec: 296359304
    frame_id: base_footprint
  child_frame_id: base_link
  transform:
    translation:
      x: 0.0
      y: 0.0
      z: 0.0
    rotation:
      x: 0.0
      y: 0.0
      z: 0.0
      w: 1.0
---
